case_no,status_dttm,status,code,value,description,violation_stno,violation_sthigh,violation_street,violation_suffix,violation_city,violation_state,violation_zip,ward,contact_addr1,contact_addr2,contact_city,contact_state,contact_zip,sam_id,latitude,longitude,location
V365845,9/26/2017 10:22,Open,400.12,,Uses not Permitted,77,81,Empire,ST,Allston,MA,2135,22,60 LEO M BIRMINGHAM PKWY,,BRIGHTON,MA,02135,53778,42.35819960952516,-71.1270606,"(42.35819960952516, -71.1270606013909)"
V141396,12/4/2012 6:46,Closed,116.2,,Unsafe and Dangerous,116,116A,Brunswick,ST,Dorchester,MA,2121,14,42Baxter St,,Quincy,Ma,02169,22868,42.31064955,-71.0789906,"(42.3106495518662, -71.07899059983605)"
V86185,11/8/2010 11:25,Closed,1028.3,,Testing & Certification,7,,Everett,AV,Dorchester,MA,2125,13,7 Everett Ave,,Dorchester,MA,02125,165122,42.31581251767921,-71.06311117,"(42.31581251767921, -71.063111173184)"
V142576,12/18/2012 9:06,Closed,116.2,,Unsafe and Dangerous,82,,Bunker Hill,ST,Charlestown,MA,2129,2,82 BUNKER HILL ST,,CHARLESTOWN,MA,02129,23687,42.37725951839755,-71.0580004,"(42.37725951839755, -71.0580004040031)"
V474962,2/11/2020 14:05,Closed,116.1,,Unsafe and Dangerous,79,81,Glenway,ST,Dorchester,MA,2121,14,81 GLENWAY STREET,,DORCHESTER,MA,02121,64762,42.30019955849409,-71.08280063,"(42.30019955849409, -71.08280063200324)"
V432767,1/15/2019 14:42,Closed,1030.1,,Emergency Escape & Rescue,208,,Norwell,ST,Dorchester,MA,2124,17,208 NORWELL ST,Unit 2,DORCHESTER,MA,02124,104079,42.29537955237632,-71.07804063,"(42.29537955237632, -71.07804063205968)"
V196863,7/1/2014 11:56,Open,105.1,,Failure to Obtain Permit,30,,Neponset,AVE,Dorchester,MA,2122,16,30 Neponset Avenue,Unit 2,Dorchester,MA,02122,100852,42.296648520651694,-71.05509458,"(42.296648520651694, -71.055094577412)"
V72787,7/12/2010 10:10,Closed,121,,Unsafe Structure,7,,Charles,ST,Boston,MA,2114,5,11 CHARLES ST,,BOSTON,MA,02114,29172,42.35649398873978,-71.06932432,"(42.35649398873978, -71.06932432331321)"
V553333,4/26/2021 13:38,Closed,105.1,,Failure to Obtain Permit,726,,Third,ST,South Boston,MA,2127,6,726 E THIRD ST,,SOUTH BOSTON,MA,02127,135100,42.33672948,-71.03048043,"(42.3367294846108, -71.03048043295708)"
V153045,4/29/2013 10:59,Open,110.11,,Deteriorating Agents,45,,Winthrop,ST,Roxbury,MA,2119,12,45 WINTHROP ST,,ROXBURY,MA,02128,151037,42.32560955163152,-71.08013057,"(42.32560955163152, -71.08013056935285)"
V541947,2/3/2021 12:39,Closed,110.3.6,,Fire Blocking Required,8,,Chestnut,AV,Jamaica Plain,MA,2130,10,"859 WILLARD ST, SUITE 503",,QUINCY,MA,02169,163317,42.32231435083925,-71.10188281,"(42.32231435083925, -71.10188281424361)"
V498075,6/24/2020 12:43,Open,3307.1,,Protection of Adj. Property,1152,,Bennington,ST,East Boston,MA,2128,1,20C DEL CARMINE ST,,WAEFIELD,MA,01880,419780,42.38873571827927,-71.00056705,"(42.38873571827927, -71.00056705269103)"
V130912,9/24/2012 11:20,Closed,105.1,,Failure to Obtain Permit,114,,Sawyer,AVE,Dorchester,MA,2125,13,47 SAVIN HILL AV APT 1A,,DORCHESTER,MA,02125-1498,123516,42.31366953035617,-71.06354056,"(42.31366953035617, -71.06354055836307)"
V545529,2/22/2021 10:00,Closed,105.1,,Failure to Obtain Permit,34,,Evergreen,ST,Jamaica Plain,MA,2130,10,102 ELLERY ST,,CAMBRIDGE,MA,02138,55288,42.32409159308297,-71.11074564,"(42.32409159308297, -71.11074564095051)"
V443935,4/26/2019 12:34,Closed,105.1,,Failure to Obtain Permit,47,49,Rosseter,ST,Dorchester,MA,2121,14,531 ELIOT ST,,MILTON,MA,02186,118780,42.30377954745709,-71.07531061,"(42.30377954745709, -71.07531060728567)"
V180131,3/25/2014 8:53,Closed,104.6,,Right of Entry,95,,Roslindale,AVE,Roslindale,MA,2131,20,205 WEATHERBEE DR,,WESTWOOD,MA,02090-2140,118708,42.28438963188976,-71.13435078,"(42.28438963188976, -71.1343507830042)"
V416887,9/10/2018 12:26,Closed,102.8,,Maintenance,99,,Pinckney,ST,Boston,MA,2114,5,17 Forster Street,,"Manchester by the Sea,",MA,01944,110789,42.35892953417134,-71.06944047,"(42.35892953417134, -71.0694404710023)"
V498504,6/29/2020 11:06,Closed,116.2,,Unsafe and Dangerous,208,218,Columbia,RD,Dorchester,MA,2121,14,135 RESERVOIR AVENUE,,PROVIDENCE,RI,02190,35181,42.307299549239374,-71.0766306,"(42.307299549239374, -71.07663060206283)"
V178758,3/17/2014 10:24,Closed,5110.1,,Failure to secure permit,35,37,Larch,ST,Brighton,MA,2135,22,37 larch st,,brighton,ma,02135,84040,42.34736966380802,-71.16711372,"(42.34736966380802, -71.16711371560885)"
V185292,4/28/2014 14:59,Closed,105.1,,Failure to Obtain Permit,39,,Glen,RD,Jamaica Plain,MA,2130,11,12 Marvin Ln.,,Newton Center,MA,02459,63938,42.30864958434926,-71.10233066,"(42.30864958434926, -71.10233065721702)"
V138327,10/16/2012 8:22,Closed,116.2,,Unsafe and Dangerous,828,,Centre,ST,Jamaica Plain,MA,2130,19,12 newbern,,Jamica PLain,ma,02130,28279,42.30859260706372,-71.11895069,"(42.30859260706372, -71.11895069458612)"
V208417,9/5/2014 9:45,Closed,105.1,,Failure to Obtain Permit,540,,Gallivan,BLVD,Dorchester,MA,2122,16,540 GALLIVAN BLVD,,DORCHESTER,MA,02124,62343,42.28298052061151,-71.05471461,"(42.28298052061151, -71.05471460657229)"
V121048,4/4/2012 12:18,Open,400.8,,Uses not permitted,651,663,Warren,ST,Dorchester,MA,2121,12,"Shear-Yashub Israel-Shear Yashub, agt",653 Warren St,Boston,MA,02121,143328,42.30975555759855,-71.08301861,"(42.30975555759855, -71.08301861133154)"
V214383,11/12/2014 14:28,Closed,105.1,,Failure to Obtain Permit,82,,G,ST,South Boston,MA,2127,7,339 DORCHESTER ST,,SOUTH BOSTON,MA,02127,61677,42.333169503168286,-71.04394047,"(42.333169503168286, -71.04394047114259)"
V360192,8/23/2017 9:49,Closed,102.8,,Maintenance,9,11,Elm Hill,PARK,Dorchester,MA,2121,12,56 BARTONS LANE,,MILTON,MA,02186,53263,42.31264955685494,-71.0825006,"(42.31264955685494, -71.08250060313067)"
V82851,9/30/2010 12:46,Closed,110.1,,Inspections,4,,Milford,ST,Roxbury,MA,2118,3,16 Bond St,,Boston,MA,02118,95400,42.34376953544182,-71.0694105,"(42.34376953544182, -71.06941050421358)"
V527927,11/23/2020 14:47,Closed,116.1,,Unsafe and Dangerous,36,,Robinson,ST,Dorchester,MA,2122,15,50 COMMON STREET,,NORWELL,MA,02061,117373,42.30264952923008,-71.06194058,"(42.30264952923008, -71.06194057933166)"
V612912,7/20/2022 10:13,Open,116,,Unsafe Structures,98,100,Colborne,RD,Brighton,MA,2135,21,"98 Colborne Rd, #1",,Brighton,MA,02135,163519,42.34429377919253,-71.14888428,"(42.34429377919253, -71.14888427892552)"
V637004,10/6/2022 14:55,Open,116,,Unsafe Structures,80,,Smith,ST,Mission Hill,MA,2120,10,C/O WESTON ASSOCIATES INC,170 NEWBURY St,BOSTON,MA,02116,419263,42.33385957778441,-71.1004806,"(42.33385957778441, -71.10048059674006)"
V411708,8/15/2018 14:13,Closed,3310.2,,Maintenance of Means of Egress,4,,Napier,PK,Dorchester,MA,2125,13,428 SAVIN HILL AVE,UNIT  3,DORCHESTER,MA,02125,167982,42.31145354622885,-71.05206688,"(42.31145354622885, -71.05206687583552)"
V128372,7/3/2012 9:18,Closed,105.1,,Failure to Obtain Permit,163,,Old Colony,AVE,South Boston,MA,2127,7,25 Lakeside Drive,,Braintree,MA,02184,105071,42.33402951791832,-71.05504049,"(42.334029517918324, -71.0550404941407)"
V221519,1/7/2015 9:13,Closed,107.4,,Failed to comply w permit term,39,,Samoset,ST,Dorchester,MA,2124,16,39 Samoset Street,,Dorchester Center,MA,02124,122143,42.29098953471921,-71.06497061,"(42.29098953471921, -71.06497061243397)"
V163239,8/22/2013 9:16,Open,116.2,,Unsafe and Dangerous,28,,Ashford,ST,Allston,MA,2134,21,C/O COBRA REALTY TRUST,183 HARVARD ST,ALLSTON,MA,02134-1003,5130,42.35463961100822,-71.12806061,"(42.35463961100822, -71.1280606118918)"
V338355,3/30/2017 8:48,Open,105.1,,Failure to Obtain Permit,86,88,Bedford,ST,Boston,MA,2111,3,30 EMBANKMENT RD,,BOSTON,MA,02114,13081,42.353488205480666,-71.05968922,"(42.353488205480666, -71.05968921870927)"
V552940,4/22/2021 13:25,Closed,116.1,,Unsafe and Dangerous,68,64,Goodale,RD,Mattapan,MA,2126,14,68 GOODALE ROAD,,MATTAPAN,MA,02126,65226,42.28383958,-71.09436069,"(42.2838395759583, -71.09436069426972)"
V83205,10/5/2010 15:29,Closed,Chapter 103.1,,Unsafe Maintenance,24,28,Denby,RD,Allston,MA,2134,22,24 Denby Rd,,Allston,MA,02134,164222,42.35531456593509,-71.13518203,"(42.35531456593509, -71.1351820253068)"
V154566,5/14/2013 9:14,Closed,R105.1,,Failure to Secure Permit,1A,,Popes Hill,ST,Dorchester,MA,2122,16,66 keystone st,,w roxbury,ma,02132,111745,42.29278951437176,-71.05021057,"(42.29278951437176, -71.05021057468386)"
V135206,9/12/2012 9:23,Closed,116.2,,Unsafe and Dangerous,19R, ,Surrey,ST,Brighton,MA,2135,22,19 SURREY ST,,BRIGHTON,MA,02128,132801,42.35034964551926,-71.15377068,"(42.35034964551926, -71.15377067909762)"
V182513,10/8/2014 12:49,Closed,116.2,,Unsafe and Dangerous,87,,Dix,ST,Dorchester,MA,2122,16,87 dix st,,dorchester,MA,02122,47921,42.295829524173605,-71.05759058,"(42.295829524173605, -71.05759058482289)"
V430540,12/19/2018 9:52,Closed,NFPA54,,National Fuel Gas Code,449,,Second,ST,South Boston,MA,2127,6,449 W SECOND STREET,,SOUTH BOSTON,MA,02127,124746,42.33684950317909,-71.04439046,"(42.33684950317909, -71.04439046402739)"
V378844,1/5/2018 10:30,Closed,105.1,,Failure to Obtain Permit,874,,Broadway,,South Boston,MA,2127,6,874 E BROADWAY,,SOUTH BOSTON,MA,02127,21281,42.33588948268111,-71.02904043,"(42.33588948268111, -71.02904043092475)"
V692246,8/10/2023 9:12,Open,3307.1,,Protection of Adj. Property,34,,Billings,LN,Jamaica Plain,MA,2130,19,34 BILLINGS LANE,,JAMAICA PLAIN,MA,02130,15465,42.31382961536143,-71.1260307,"(42.31382961536143, -71.1260306987234)"
V218537,12/5/2014 11:21,Open,1001.3.2,,Testing & Certification,596,,Cambridge,ST,Allston,MA,2134,21,29 Harriet Street,,Brighton,MA,02135,25171,42.35176962924478,-71.14167065,"(42.35176962924478, -71.14167064855323)"
V632350,9/14/2022 13:21,Open,1001.3.2,,Testing & Certification,34,36,Charles,ST,Boston,MA,2108,5,65 CHESTNUT STREET,,BOSTON,MA,02108,29152,42.35704753563346,-71.07009748,"(42.35704753563346, -71.0700974763829)"
V666745,3/16/2023 15:37,Open,102.8,,Maintenance,1126,1130,Dorchester,AVE,Dorchester,MA,2125,15,1130 DORCHESTER AVE,,DORCHESTER,MA,02125,48213,42.31220952208411,-71.05719055,"(42.31220952208411, -71.05719054689649)"
V224769,2/3/2015 12:25,Open,110.7,,Periodic Inspections,728,738,Centre,ST,Jamaica Plain,MA,2130,19,736 Centre Street,,Jamaica Plain,MA,02130,28180,42.31089160039018,-71.11438068,"(42.31089160039018, -71.11438067901322)"
V485579,2/11/2020 8:56,Closed,105.1,,Failure to Obtain Permit,682,,Blue Hill,AVE,Dorchester,MA,2121,14,344 TALBOT AVE,,DORCHESTER,MA,02124,16527,42.30094956166684,-71.08551064,"(42.30094956166684, -71.08551063636529)"
V257158,9/8/2015 8:40,Open,116.2,,Unsafe and Dangerous,11A,,Linden,ST,Allston,MA,2134,21,100 HAMMOND ST,,WALTHAM,MA,02451-3652,86412,42.35543561561883,-71.13112562,"(42.35543561561883, -71.13112561704278)"
V222268,1/13/2015 11:01,Closed,104.6,,Right of Entry,31,,Dell,AVE,Hyde Park,MA,2136,18,31 Dell Avenue,,Hyde Park,MA,02136,47169,42.26077961816546,-71.12191081,"(42.26077961816546, -71.12191080823636)"
V92735,3/4/2011 13:00,Open,110.1,,Inspections,10,12,Basile,ST,Roslindale,MA,2131,19,12 BASILE ST.,,ROSLINDALE,MA,02131,8554,42.28690962092249,-71.12671076,"(42.28690962092249, -71.1267107604983)"
V60207,3/22/2010 14:28,Closed,5110.1,,Failure to secure permit,161,,Leyden,ST,East Boston,MA,2128,1,"Aaron M Daugnvault, 27-29 Lincoln St",,Winthrop,Ma,02152,85759,42.38869647172888,-71.00556044,"(42.38869647172888, -71.00556044286422)"
V62729,4/13/2010 9:28,Closed,5103.1,,Maintenance,185,,Heath,ST,Mission Hill,MA,2120,10,185 Heath St,,Jamaica Plain,MA,02130,72324,42.32621169255442,-71.10504319,"(42.32621169255442, -71.10504319004536)"
V219498,12/15/2014 8:35,Closed,111.1,,Certificate of Occupancy,109,,Webster,ST,East Boston,MA,2128,1,109 Webster Street,,East Boston,MA,02128,172646,42.36638899890089,-71.03689131,"(42.36638899890089, -71.03689131487681)"
V183721,4/18/2014 10:05,Open,105.1,,Failure to Obtain Permit,14,16,Arborough,RD,Roslindale,MA,2131,20,14-16 Arborough Rd,,Roslindale,MA,02131,341582,42.28961749466963,-71.12870306,"(42.28961749466963, -71.12870306403673)"
V447914,5/31/2019 10:51,Open,1001.3.2,,Testing & Certification,9,,Dwight,ST,Roxbury,MA,2118,3,9 DWIGHT ST,,BOSTON,MA,02118,50442,42.344159533607325,-71.0680205,"(42.344159533607325, -71.06802050009091)"
V123284,5/2/2012 15:04,Closed,105.1,,Failure to Obtain Permit,11,,Harold,PARK,Roxbury,MA,2119,12,8 RUTHVEN ST,,DORCHESTER,MA,02121,69632,42.31917956339874,-71.0880706,"(42.31917956339874, -71.08807060160461)"
V76460,8/11/2010 8:59,Closed,121.1,,Unsafe and Dangerous,47, ,Chelsea,ST,East Boston,MA,2128,1,"Att: Saul E Perlera, 142 Meridian St",,East Boston,MA,02128,30575,42.37098949185776,-71.03721037,"(42.370989491857756, -71.03721037172703)"
V146093,2/12/2013 12:23,Closed,110.7,,Periodic Inspections,131,134,Tremont,ST,Boston,MA,2111,3,TREMONT COMMON  CO,645 BEACON,BOSTON,MA,02215,136815,42.35601072,-71.06228161,"(42.3560107227543, -71.06228161416331)"
V614400,5/16/2022 9:23,Open,116,,Unsafe Structures,9,,Kearsarge,AVE,Roxbury,MA,2119,12,C/O ALAN AMBROSE,9 KEARSARGE AVE APT 1,ROXBURY,MA,02119,80736,42.327299555036966,-71.08240057,"(42.327299555036966, -71.08240057008906)"
V473500,11/20/2019 10:48,Closed,105.1,,Failure to Obtain Permit,4198,4206,Washington,St,Roslindale,MA,2131,19,25 FAYETTE ST,UNIT 1,BOSTON,MA,02116,145150,42.28684676225726,-71.1273615,"(42.28684676225726, -71.12736149731037)"
V364931,9/18/2017 11:49,Closed,3307.1,,Protection of Adj. Property,872,,Broadway,,South Boston,MA,2127,6,872 EAST BROADWAY,,SOUTH BOSTON,MA,02127,21279,42.33588948272449,-71.02911043,"(42.33588948272449, -71.02911043159655)"
V89769,1/11/2011 14:15,Closed,113.2,,Failure to Comply w Bldg Code,72, ,Frankfort,ST,East Boston,MA,2128,1,7 Columbia Terr,,Brookline,MA,02146,60578,42.37090948796144,-71.03417036,"(42.370909487961434, -71.03417036432768)"
V404081,6/22/2018 15:08,Closed,105.1,,Failure to Obtain Permit,59,,Myrtle,ST,Boston,MA,2114,5,46 Wenham Road,,Topsfield,MA,01983,99771,42.35939553122253,-71.06656646,"(42.35939553122253, -71.06656646316871)"
V61048,3/29/2010 9:07,Closed,3307.1,,Protection of Adj. Property,2,,Atherstone,ST,Dorchester,MA,2124,17,2 Atherstone St,,Dorchester,MA,02124,5828,42.283719539828695,-71.06861064,"(42.283719539828695, -71.06861063653339)"
V324318,11/10/2016 11:03,Open,314.25,,Covers & Canopies,13,,Hendry,ST,Dorchester,MA,2122,15,40 Manson Libby Road,,Scarborough,me,04074,72884,42.30923953226826,-71.06470057,"(42.30923953226826, -71.06470057123856)"
V179336,4/10/2014 11:12,Open,116.2,,Unsafe and Dangerous,18, ,Eldora,ST,Mission Hill,MA,2120,10,77 IROQUOIS ST,,BOSTON,MA,02120,52627,42.33132958891135,-71.10841062,"(42.33132958891135, -71.10841061972887)"
V589768,11/22/2021 14:47,Open,105.1,,Failure to Obtain Permit,44,,Lawrence,AV,Dorchester,MA,2121,14,44 LAWRENCE AVE,,Roxbury,MA,02121,166986,42.31245077831096,-71.07720999,"(42.31245077831096, -71.0772099945298)"
V242934,9/25/2015 8:13,Closed,116.2,,Unsafe and Dangerous,9,,Winton,ST,Roslindale,MA,2131,18,127 Beaver Street,,Hyde Park,MA,02136,151078,42.27544963190673,-71.1334408,"(42.27544963190673, -71.13344080131837)"
V65451,5/6/2010 10:49,Closed,5121,,Unsafe Structures,1,,Bennet,PL,East Boston,MA,2128,1,17305 Tall Treet Trail,,Chagrin Falls,OH,44023,14339,42.380889493718165,-71.03869035,"(42.380889493718165, -71.03869035289543)"
V352349,7/6/2017 11:03,Closed,105.1,,Failure to Obtain Permit,93,,Condor,ST,East Boston,MA,2128,1,93 CONDOR ST,,EAST BOSTON,MA,02128,42075,42.38246749095434,-71.03668435,"(42.38246749095434, -71.0366843450887)"
V710420,10/24/2023 10:22,Open,102.8,,Maintenance,36,,Beacon,ST,Boston,MA,2108,5,C/O MARSTON BEACON HILL,115 CHARLES STREET,BOSTON,MA,02114,11236,42.35725952950605,-71.06548047,"(42.35725952950605, -71.06548046580976)"
V333307,2/17/2017 8:27,Closed,116.2,,Unsafe and Dangerous,1182,1196,Hyde Park,AVE,Hyde Park,MA,2136,18,"46 Nerponset Avenue, Unit 2",,Roslindale,MA,02131,77075,42.25829962042579,-71.12331082,"(42.25829962042579, -71.12331081674932)"
V121045,4/4/2012 8:11,Closed,116.2,,Unsafe and Dangerous,328,,Chelsea,ST,East Boston,MA,2128,1,328 CHELSEA ST,,EAST BOSTON,MA,02128,30501,42.37750948290245,-71.03024034,"(42.377509482902454, -71.0302403413792)"
V153045,4/29/2013 10:59,Open,110.12,,Mechanical Execution of Work,45,,Winthrop,ST,Roxbury,MA,2119,12,45 WINTHROP ST,,ROXBURY,MA,02128,151037,42.32560955163152,-71.08013057,"(42.32560955163152, -71.08013056935285)"
V181317,9/2/2014 14:56,Closed,116.2,,Unsafe and Dangerous,33,,Myrtle,ST,Boston,MA,2114,3,C/O  stan rosenberg etal -agent unit2,33 myrtle st,boston,MA,02114,99714,42.35941652939829,-71.06579746,"(42.35941652939829, -71.06579746107879)"
V330962,1/31/2017 9:35,Open,105.1,,Failure to Obtain Permit,27,,Hancock,ST,Dorchester,MA,2125,15,27 HANCOCK STREET,UNIT 2,DORCHESTER,MA,02125,68913,42.31468953393404,-71.06605056,"(42.31468953393404, -71.06605056146765)"
V371775,6/28/2018 9:42,Open,116.2,,Unsafe and Dangerous,79,,Jamaica,ST,Jamaica Plain,MA,2130,11,30 Eastbrook Road,Suite 301,Dedham,MA,02026,79319,42.30520577786391,-71.11748399,"(42.30520577786391, -71.11748398633277)"
V148917,3/7/2013 9:08,Closed,105.1,,Failure to Obtain Permit,35,,Hichborn,St,Brighton,MA,2135,22,taliesin  trust,45 sierra rd,hyde park,ma,02136,73250,42.35540807435439,-71.14356492,"(42.35540807435439, -71.14356492074457)"
V617203,6/6/2022 15:38,Closed,107.4,,Failed to comply w permit term,235,,Chelsea,ST,East Boston,MA,2128,1,171 Falcon St,,Eat Boston,MA,02128,30426,42.37545948515236,-71.03200035,"(42.37545948515236, -71.03200035011673)"
V537482,1/4/2021 13:10,Open,105.1,,Failure to Obtain Permit,11,,Greenbrier,ST,Dorchester,MA,2124,15,1105 S ALODIE CT,,APEX,NC,27502,66445,42.29931954,-71.07218061,"(42.2993195439135, -71.07218060971834)"
V347767,6/5/2017 11:02,Closed,105.1,,Failure to Obtain Permit,46,,Monument,AVE,Charlestown,MA,2129,2,46 MONUMENT AV,,CHARLESTOWN,MA,02129,96884,42.37495952358168,-71.06183042,"(42.37495952358168, -71.06183041802295)"
V178184,2/25/2014 9:23,Closed,R115.1,,Unsafe & Dangerous,64,,G,ST,South Boston,MA,2127,7,616 e sixth st,,south boston,ma,02127,61660,42.33390950308289,-71.04398047,"(42.33390950308289, -71.04398046958097)"
V146092,2/12/2013 9:10,Closed,3306.1,,Protection of Pedestrians,7,,Worcester,SQ,Roxbury,MA,2118,8,7 worcester sq  llc,540 tremont st ste 8,boston,ma,02116,152343,42.336729543938766,-71.07523053,"(42.336729543938766, -71.07523053336257)"
V487580,2/24/2020 12:51,Closed,1001.3.2,,Testing & Certification,1,,Powers,CT,Boston,MA,2109,3,27 HOOKER ST,,ALLSTON,MA,02134,112453,42.36597951102041,-71.05169041,"(42.36597951102041, -71.05169041473597)"
V95811,4/12/2011 9:57,Closed,104.6,,Right of Entry,790,,Saratoga,ST,East Boston,MA,2128,1,790 SARATOGA ST,,EAST BOSTON,MA,02128,122796,42.38429946495585,-71.01627029,"(42.38429946495585, -71.01627029485148)"
V144077,3/14/2013 11:43,Closed,116.2,,Unsafe and Dangerous,45,,Bloomfield,ST,Dorchester,MA,2124,17,45 BLOOMFIELD ST,,DORCHESTER,MA,02124-1303,16020,42.29937953801144,-71.0678606,"(42.299379538011436, -71.06786060034628)"
V117130,2/14/2012 12:29,Closed,104.6,,Right of Entry,11,,Harold,PARK,Roxbury,MA,2119,12,8 RUTHVEN ST,,DORCHESTER,MA,02121,69632,42.31917956339874,-71.0880706,"(42.31917956339874, -71.08807060160461)"
V228247,9/29/2015 14:05,Closed,901.2,,Fire Protection Systems,140,148,Berkeley,ST,Roxbury,MA,2118,3,16 Bond Street,,Boston,MA,02118,15100,42.34390008133674,-71.06505228,"(42.34390008133674, -71.06505227607974)"
V156034,5/31/2013 8:29,Closed,105.1,,Failure to Obtain Permit,50,,Monument,SQ,Charlestown,MA,2129,2,50 monument sq condo,50 monument sq unit 9,charlestown,ma,02129,97097,42.37519952,-71.06059041,"(42.3751995212938, -71.06059041419432)"
V626702,8/23/2022 9:41,Open,105.1,,Failure to Obtain Permit,153,155,Maverick,ST,East Boston,MA,2128,1,31 KENNARD STREET,,MALDEN,MA,02148,92957,42.36969949313221,-71.03821038,"(42.36969949313221, -71.03821037616953)"
V496402,6/10/2020 9:22,Closed,105.1,,Failure to Obtain Permit,17,19,Greendale,RD,Mattapan,MA,2126,14,17-19 GREENDALE RD,,MATTAPAN,MA,02126,66508,42.28580957566284,-71.09437069,"(42.28580957566284, -71.09437069031031)"
V125518,5/22/2012 12:33,Closed,R105.1,,Failure to Secure Permit,16,18,Stockwell,ST,Mission Hill,MA,2120,10,110 Terrace St,,Boston,MA,02120,130802,42.33199258740633,-71.10732062,"(42.33199258740633, -71.10732061594186)"
V127750,7/3/2012 9:41,Closed,116.2,,Unsafe and Dangerous,75,,Eutaw,ST,East Boston,MA,2128,1,WELLS FARGO,420 MONTGOMERY STREET,SAN FRANCISCO,CA,94163,54732,42.379469491135055,-71.03647035,"(42.379469491135055, -71.03647035031601)"
V625882,8/17/2022 11:18,Open,102.8,,Maintenance,37,,Cooper,ST,Boston,MA,2113,3,36 STRAWBERRY HILL ST,,DOVER,MA,02030,42412,42.364539518075794,-71.05700043,"(42.364539518075794, -71.0570004299487)"
V240700,5/26/2015 13:26,Closed,105.1,,Failure to Obtain Permit,14,,Chelsea,ST,East Boston,MA,2128,1,14 CHELSEA,APT 1,EAST BOSTON,MA,02128-1913,30318,42.370479493325135,-71.03840038,"(42.370479493325135, -71.03840037556576)"
V699530,9/5/2023 15:34,Open,102.8,,Maintenance,19,,Stonehurst,ST,Dorchester,MA,2122,15,30 Caldwell Street,Unit 112,Charlestown,MA,02129,130993,42.304419536574905,-71.06756059,"(42.304419536574905, -71.0675605881836)"
V133048,4/1/2013 9:26,Closed,116.2,,Unsafe and Dangerous,20,,Winthrop,ST,Roxbury,MA,2119,12,20 WINTHROP ST,,ROXBURY,MA,02119,151018,42.32646955408335,-71.08193057,"(42.326469554083346, -71.08193057083368)"
V172619,2/3/2014 14:44,Closed,105.1,,Failure to Obtain Permit,30,40,Rockingham,AVE,West Roxbury,MA,2132,20,155 federal st ste 700,,boston,ma,02110,117635,42.26481966617347,-71.15611088,"(42.26481966617347, -71.15611087638736)"
V613787,6/8/2022 12:02,Closed,1001.3.2,,Testing & Certification,149,,North,ST,Boston,MA,2109,3,C/O BRIAN THIBEAULT,300 GAY STREET,MANCHESTER,NH,03103,103524,42.36280951,-71.05413043,"(42.3628095148227, -71.05413042724396)"
V218241,12/3/2014 11:13,Closed,105.1,,Failure to Obtain Permit,1704,1706,Washington,ST,Roxbury,MA,2118,8,1704 WASHINGTON ST,,Boston,MA,02118,144361,42.33693625787826,-71.07588116,"(42.336936257878264, -71.07588115564835)"
V109961,10/11/2011 12:59,Closed,105.1,,Failure to Obtain Permit,69,71,Maverick,SQ,East Boston,MA,2128,1,4037 Rock Hill Loop,,Apopka,FL,32712,92911,42.36975149425208,-71.03860938,"(42.36975149425208, -71.03860937738584)"
V565656,6/29/2021 9:13,Open,102.8,,Maintenance,52,,Wrentham,ST,Dorchester,MA,2124,16,52 WRENTHAM STREET,,DORCHESTER,MA,02124,153006,42.28830952907225,-71.06098061,"(42.28830952907225, -71.06098060896255)"
V147568,3/21/2013 13:35,Closed,105.1,,Failure to Obtain Permit,951,,Blue Hill,AVE,Dorchester,MA,2124,14,89 burrell st,,roxbury,ma,02186,16605,42.29193956806681,-71.08931066,"(42.29193956806681, -71.089310664845)"
V277747,1/21/2016 10:10,Closed,104.6,,Right of Entry,412,,Eighth,ST,South Boston,MA,2127,7,5551 GRAND CRESENT DR,,GALENA,OH,43021,52140,42.33143950344978,-71.04457048,"(42.33143950344978, -71.04457047575056)"
V82643,9/29/2010 10:52,Closed,121.1,,Unsafe and Dangerous,59,,Chelsea,ST,East Boston,MA,2128,1,151 County Road,a/k/a Maryanne Vautrinot,Plympton,MA,02367,30587,42.37133949135406,-71.03681037,"(42.37133949135406, -71.03681036963839)"
V197124,7/2/2014 10:38,Open,105.1,,Failure to Obtain Permit,331,,Ashmont,ST,Dorchester,MA,2124,16,1375 Brush Hill Rd.,,Milton,MA,02186,5394,42.28684952701043,-71.05929061,"(42.28684952701043, -71.05929060876727)"
V144938,1/29/2013 10:15,Closed,105.1,,Failure to Obtain Permit,53,,High,ST,Charlestown,MA,2129,2,53 HIGH ST,,CHARLESTOWN,MA,02129,73427,42.37661852537154,-71.06329842,"(42.37661852537154, -71.06329841695113)"
V217089,3/9/2015 12:20,Open,116.1,,Unsafe and Dangerous,40,44,Harrison,AV,Boston,MA,2111,3,975 TREMONT STREET,,BOSTON,MA,02120,340723,42.35159938153756,-71.06099669,"(42.35159938153756, -71.06099669357089)"
V127980,6/25/2012 13:31,Closed,248 CMR,,Mass State Plumbing Code,210,,Willow,ST,West Roxbury,MA,2132,20,210 WILLOW ST,,WEST ROXBURY,MA,02132,150269,42.29295966163696,-71.15680082,"(42.29295966163696, -71.1568008150574)"
V484955,2/6/2020 9:21,Closed,110.7,,Periodic Inspections,108,,Seaver,ST,Dorchester,MA,2121,12,108 SEAVER,,DORCHESTER,MA,02121,124140,42.310329570307125,-71.09212063,"(42.310329570307125, -71.09212063009474)"
V177614,2/18/2014 10:36,Closed,116.2,,Unsafe and Dangerous,207,209,Marion,ST,East Boston,MA,2128,1,and danon management,401 west atlantic ave,del ray beach,fl,33444,90012,42.37512948859764,-71.03463036,"(42.375129488597636, -71.03463035647741)"
V78933,8/30/2010 10:49,Closed,Chapter 103.1,,Unsafe Maintenance,71,,Webster,ST,East Boston,MA,2128,1,133 Chestnut St,,Cambridge,MA,02139,146924,42.36701949359465,-71.03801038,"(42.36701949359465, -71.03801038240938)"
V151391,4/8/2013 9:32,Closed,105.6,,Suspension or Revocation,22,,Corinne,RD,Brighton,MA,2135,22,22 corinne rd,,brighton,ma,02135,42853,42.35559965289154,-71.16020068,"(42.35559965289154, -71.16020068134694)"
V126778,6/12/2012 11:09,Closed,116.2,,Unsafe and Dangerous,15,17,Brinsley,ST,Dorchester,MA,2121,14,420 Montgomery Street,,San Francisco,CA,94163,20426,42.30501955229285,-71.07860061,"(42.30501955229285, -71.07860061155476)"
V107947,9/7/2011 10:36,Closed,110.12,,Mechanical Execution of Work,100,,Mount Pleasant,AVE,Roxbury,MA,2119,8,41 W 108 St,,New York,Ny,10025,98371,42.32553554823393,-71.07741456,"(42.32553554823393, -71.07741456322405)"
V139547,11/1/2012 12:08,Closed,116.2,,Unsafe and Dangerous,83, ,Homestead,ST,Dorchester,MA,2121,12,83 HOMESTEAD ST,,DORCHESTER,MA,02128,75141,42.31196956773021,-71.09102062,"(42.31196956773021, -71.09102062361262)"
V199633,8/5/2014 15:45,Open,116.2,,Unsafe and Dangerous,16,,Sawyer,TE,Allston,MA,2134,21,138 Harvard Avenue,,Allston,MA,02134,306897,42.355019607252665,-71.1249906,"(42.355019607252665, -71.12499060398163)"
V346294,5/23/2017 13:48,Closed,Article 4 Section 4-3,,No use of premises permit:,329,,Vermont,ST,West Roxbury,MA,2132,20,329 VERMONT ST,,WEST ROXBURY,MA,02132,140024,42.28567967897072,-71.16825086,"(42.28567967897072, -71.16825085715557)"
V202895,8/6/2014 10:26,Open,105.1,,Failure to Obtain Permit,101,,Westville,ST,Dorchester,MA,2124,15,101 Westville Street,Unit. 2,Dorchester Center,MA,02124,148877,42.30057953818122,-71.0683606,"(42.30057953818122, -71.06836059849411)"
V151782,4/11/2013 13:30,Closed,116.2,,Unsafe and Dangerous,46,,Fowler,ST,Dorchester,MA,2121,14,46 FOWLER ST,,ROXBURY,MA,02121,60354,42.30075955731727,-71.08217063,"(42.30075955731727, -71.0821706291422)"
V88626,12/17/2010 10:30,Closed,121.1,,Unsafe and Dangerous,11,,Nott,ST,Hyde Park,MA,2136,18,1 Organ Park St,,Roslindale,MA,02131,104194,42.25462544667769,-71.11908974,"(42.25462544667769, -71.11908973972331)"
V363829,9/11/2017 10:00,Closed,111.4,,Revocation of Cert. of Occ.,1061,,River,ST,Hyde Park,MA,2136,18,1061 RIVER ST,,HYDE PARK,MA,02136,116290,42.25910961298876,-71.1178908,"(42.25910961298876, -71.11789080283347)"
V234593,4/16/2015 10:56,Closed,1001.3.2,,Testing & Certification,262,,Newbury,ST,Boston,MA,2116,5,C/O PETER GIAMBRO,519 PARK DR,BOSTON,MA,02215-2922,101475,42.34922955355422,-71.08304052,"(42.34922955355422, -71.0830405223201)"
V264613,10/21/2015 13:34,Closed,116.2,,Unsafe and Dangerous,20,,Winthrop,ST,Roxbury,MA,2119,12,C/O ROYAL BOLLING,722 MORTON ST,MATTAPAN,MA,02126-1813,151018,42.32646955408335,-71.08193057,"(42.326469554083346, -71.08193057083368)"
V319901,1/25/2017 15:14,Closed,105.1,,Failure to Obtain Permit,16,,Heathcote,ST,Roslindale,MA,2131,19,11 HEATHCOTE ST,,ROSLINDALE,MA,02131,72421,42.28176962046279,-71.12604077,"(42.28176962046279, -71.12604077021645)"
V296992,8/4/2016 8:45,Closed,105.1,,Failure to Obtain Permit,59,59A,Hancock,ST,Boston,MA,2114,5,1223 WALNUT ST,,NEWTON HIGHLANDS,MA,02461,165948,42.35925404118514,-71.06452058,"(42.35925404118514, -71.06452058390738)"
V448692,7/2/2019 8:29,Closed,1001.3.2,,Testing & Certification,169,171,Norfolk,AV,Roxbury,MA,2119,8,120 MILK STREET,,BOSTON,MA,02109,340745,42.32562926514802,-71.07049549,"(42.325629265148024, -71.07049548529497)"
V101236,6/20/2011 14:45,Closed,5311.4.1,,Egress,16,,Edson,ST,Dorchester,MA,2124,17,16 Edson St,,Dorchester,MA,02124,51328,42.28715955256963,-71.07777065,"(42.28715955256963, -71.07777065003728)"
V108845,2/3/2012 11:13,Open,5110.1,,Failure to secure permit,141,,Draper,ST,Dorchester,MA,2122,15,16 Wyman St,,Brockton,MA,02301,49410,42.306249534603616,-71.06573058,"(42.306249534603616, -71.06573058012377)"
V388687,3/16/2018 11:01,Open,105.1,,Failure to Obtain Permit,121,123,Beach,ST,Boston,MA,2111,3,121 123 BEACH ST,,BOSTON,MA,02111,9337,42.35055552024578,-71.05766346,"(42.350555520245784, -71.05766346260013)"
V176498,2/3/2014 13:32,Open,116.2,,Unsafe and Dangerous,55,,Leicester,ST,Brighton,MA,2135,22,19 SURREY ST,,BRIGHTON,MA,02135-2716,84933,42.351029645406165,-71.15393068,"(42.351029645406165, -71.15393067802972)"
V90657,1/26/2011 9:04,Open,1001.3.3,,,170,,Brookline,ST,Roxbury,MA,2118,4,170 W BROOKLINE ST,,BOSTON,MA,02118,22285,42.34259954,-71.07619052,"(42.342599544555604, -71.07619052263915)"
V308901,7/15/2016 14:05,Closed,1001.3.2,,Testing & Certification,329,,Commonwealth,AVE,Boston,MA,2115,5,341 COMMONWEALTH AVE,,BOSTON,MA,02115-1934,40221,42.34986955891689,-71.08731053,"(42.34986955891689, -71.08731053130799)"
V497693,6/22/2020 10:07,Closed,105.1,,Failure to Obtain Permit,899,901,Washington,ST,Dorchester,MA,2124,17,901 Washington St,,Dorchester,Ma,02124,146218,42.280309543248855,-71.07065065,"(42.280309543248855, -71.07065064928443)"
V108323,9/13/2011 15:23,Closed,105.1,,Failure to Obtain Permit,18,,Floyd,ST,Dorchester,MA,2124,14,18 FLOYD ST,,DORCHESTER,MA,02124,59036,42.29002956762847,-71.08877067,"(42.29002956762847, -71.08877066821609)"
V60211,3/22/2010 15:29,Open,Art. 248 CMR,,Permits to perform gas fitting,15,,Hazleton,ST,Mattapan,MA,2126,14,15 HAZLETON,,MATTAPAN ,MA,02114,72251,42.27902958,-71.0939507,"(42.2790295763767, -71.0939507040327)"
V63169,4/15/2010 14:19,Closed,115.6,,Right of Entry,5,,Stafford,ST,Roxbury,MA,2119,8,5 STAFFORD ST,,BOSTON,MA,02119,130080,42.321989547918974,-71.07675057,"(42.321989547918974, -71.0767505695638)"
V133077,9/4/2012 10:31,Closed,Article 9 Section 9-3,,Effect of Non-Conforming Use,12,,Grove,ST,Boston,MA,2114,5,19 ARLINGTON ST STE 32,,BOSTON,MA,02116,67502,42.36064953302925,-71.06856047,"(42.36064953302925, -71.06856046508636)"
V602984,3/11/2022 9:12,Closed,1001.3.2,,Testing & Certification,71,,Central,AVE,Hyde Park,MA,2136,18,66 CANAL STREET,,BOSTON,MA,02114,27308,42.25942961537889,-71.11997081,"(42.25942961537889, -71.11997080732087)"
V352431,7/6/2017 13:26,Closed,105.1,,Failure to Obtain Permit,800,,Morton,ST,Dorchester,MA,2124,14,800 MORTON,,MATTAPAN,MA,02126,97802,42.28260956691881,-71.08780068,"(42.28260956691881, -71.08780068202567)"
V112419,11/16/2011 12:03,Closed,101.4.4,,Maintenance,431,,Belgrade,AVE,West Roxbury,MA,2132,20,15 YORKTOWN ST,,WEST ROXBURY,MA,02132,13720,42.286219652118085,-71.14926081,"(42.286219652118085, -71.14926081272566)"
V569365,9/7/2021 8:54,Closed,102.8,,Maintenance,53,85,Canal,ST,Boston,MA,2114,3,7 WILDWOOD AVE,,BRAINTREE,MA,02184,25423,42.36382652039205,-71.05908844,"(42.36382652039205, -71.0590884363026)"
V109969,10/11/2011 14:36,Closed,105.1,,Failure to Obtain Permit,6,8,Adams,TER,Dorchester,MA,2122,16,6 Adams Terr,,Dorchester,MA,02122,356,42.29542552208743,-71.05648758,"(42.29542552208743, -71.05648758270931)"
V174458,12/24/2013 7:15,Closed,R105.1,,Failure to Secure Permit,50,,Sawyer,AVE,Dorchester,MA,2125,13,50 SAWYER AVE,,DORCHESTER,MA,02125,123535,42.31179952654548,-71.06047056,"(42.31179952654548, -71.06047055529956)"
V196388,12/2/2014 14:04,Closed,104.6,,Right of Entry,15,,Avila,RD,Hyde Park,MA,2136,18,15 Middlesex Road,,SHARON,MA,02067,7258,42.25587062731162,-71.12751383,"(42.25587062731162, -71.12751383204632)"
V59928,3/16/2010 9:32,Closed,121,,Unsafe Structure,109,,Mount Pleasant,AVE,Roxbury,MA,2119,8,1 Beacon St,21 Floor,Boston,MA,02110,98379,42.324889053125176,-71.07729046,"(42.324889053125176, -71.07729045766287)"
V664236,6/26/2023 9:22,Open,116,,Unsafe Structures,41,43,Fleet,ST,Boston,MA,2109,3,54 Ocean Drive,,HUMAROCK,MA,02047,58672,42.36415951129075,-71.05203042,"(42.36415951129075, -71.0520304198742)"
V445519,6/18/2019 8:56,Open,107.4,,Failed to comply w permit term,51,,Bicknell,ST,Dorchester,MA,2121,14,4 Half Moon St,,DORCHESTER,MA,02124,15321,42.29824955877977,-71.08281064,"(42.29824955877977, -71.08281063599247)"
V135860,9/19/2012 9:45,Closed,105.1,,Failure to Obtain Permit,430,,Washington,ST,Dorchester,MA,2124,17,430 WASHINGTON ST,,DORCHESTER,MA,02124,146078,42.296579543493664,-71.07200062,"(42.296579543493664, -71.07200061522283)"
V83201,2/22/2011 9:47,Closed,5110.1,,Failure to secure permit,1082,,Canterbury,ST,Roslindale,MA,2131,18,1082 Canterbury St,,Roslindale,MA,02131,25453,42.27786961689476,-71.12299077,"(42.27786961689476, -71.12299077264353)"
V394781,4/26/2018 9:06,Open,105.1,,Failure to Obtain Permit,314,,K,ST,South Boston,MA,2127,7,917 EAST BROADWAY,,SOUTH BOSTON,MA,02127,80568,42.33293949430801,-71.03717046,"(42.33293949430801, -71.0371704564368)"
V204640,12/2/2014 15:48,Open,105.1,,Failure to Obtain Permit,2,,Brigham,ST,East Boston,MA,2128,1,2 Brigham Street,Unit. 3,Boston,MA,02128-2803,20054,42.365159489030034,-71.03461038,"(42.365159489030034, -71.03461037861574)"
V69881,6/14/2010 12:13,Closed,121.2,,Unsafe and Dangerous,47,,Draper,ST,Dorchester,MA,2122,15,47 DRAPER ST,,DORCHESTER,MA,02122,49437,42.30291953160764,-71.06377058,"(42.302919531607635, -71.06377058275619)"
V223912,1/26/2015 10:20,Closed,105.1,,Failure to Obtain Permit,130,,Shirley,ST,Roxbury,MA,2119,8,128 WALNUT ST,APT 2,DORCHESTER,MA,02122,127184,42.32551953667468,-71.06872054,"(42.325519536674676, -71.06872054316494)"
V176860,2/12/2014 9:47,Open,110.12(A),,Unused openings,8,,Estrella,ST,Jamaica Plain,MA,2130,10,8 estrella st 2nd floor,,JAMAICA PLAIN,MA,02130-0004,54434,42.32255138284626,-71.10270463,"(42.322551382846264, -71.10270462794279)"
V523783,11/4/2020 8:47,Closed,102.8,,Maintenance,68,,Russell,ST,Charlestown,MA,2129,2,68 RUSSELL ST,,CHARLESTOWN,MA,02129,119703,42.37987952983612,-71.06697042,"(42.37987952983612, -71.0669704181621)"
V138619,10/17/2012 14:25,Open,116.2,,Unsafe and Dangerous,1035,1039,Tremont,ST,Mission Hill,MA,2120,9,Arch DEV Corp,14 Storrs Ave,Braintree,ma,02184,136793,42.33665955813037,-71.08563056,"(42.336659558130364, -71.08563055692106)"
V75887,8/5/2010 12:05,Closed,110.1,,Inspections,1100,,Washington,ST,Dorchester,MA,2124,17,"Andrea B Hadaya agt, 21 Drydock Av PMB49",,Boston,MA,02110,145922,42.27388254,-71.06975066,"(42.2738825430188, -71.06975066145436)"
V303609,5/12/2017 12:07,Open,105.1,,Failure to Obtain Permit,46,,Lambert,AVE,Roxbury,MA,2119,9,100 HALLET ST,,DORCHESTER,MA,02124-5408,83626,42.32717956521344,-71.09006059,"(42.327179565213434, -71.09006058821114)"
V278337,1/19/2016 9:50,Closed,107.4,,Failed to comply w permit term,331,,Columbus,AV,Boston,MA,2116,4,83 CENTRAL ST,,Boston,MA,02109,157607,42.34611697880129,-71.07519157,"(42.34611697880129, -71.0751915676936)"
V222378,1/14/2015 8:42,Open,105.1,,Failure to Obtain Permit,39,,Pratt,ST,Allston,MA,2134,21,3 LANTERN LN,,CANTON,MA,02021-3214,112511,42.35498961077313,-71.12793061,"(42.35498961077313, -71.12793061105158)"
V411705,8/15/2018 13:59,Closed,105.1,,Failure to Obtain Permit,4,,Napier,PK,Dorchester,MA,2125,13,4 NAPIER PK #7,,DORCHESTER,MA,02125,167982,42.31145354622885,-71.05206688,"(42.31145354622885, -71.05206687583552)"
V265067,10/23/2015 13:29,Closed,104.6,,Right of Entry,61,63,Day,ST,Jamaica Plain,MA,2130,10,668 LAGRANGE STREET,,WEST ROXBURY,MA,02132,46721,42.32497058933652,-71.10795763,"(42.324970589336516, -71.10795763280319)"
V274744,12/29/2015 11:51,Closed,105.1,,Failure to Obtain Permit,9,,Thacher,CT,Boston,MA,2113,3,107 North Washington St,,Boston,MA,02114,134543,42.36560581302689,-71.05777453,"(42.36560581302689, -71.05777452929512)"
V95054,4/1/2011 10:49,Closed,Chapter 103.1,,Unsafe Maintenance,244,,Columbia,RD,Dorchester,MA,2121,14,"244 COLUMBIA RD, 3RD FLOOR",,DORCHESTER,MA,02121,35195,42.30806954759559,-71.0758306,"(42.30806954759559, -71.07583059854349)"
V71744,6/30/2010 10:40,Closed,5110.1,,Failure to secure permit,30, ,Annafran,ST,Mattapan,MA,2131,18,30 ANNAFRAN ST,,BOSTON,MA,02131,3654,42.27373959971606,-71.11015075,"(42.27373959971606, -71.1101507528289)"
V81116,9/13/2010 10:18,Closed,Chapter 103.1,,Unsafe Maintenance,16,,Hopkins,ST,Dorchester,MA,2124,17,16 HOPKINS  ST,,DORCHESTER,MA,02124,75293,42.28178956,-71.08396068,"(42.2817895615748, -71.08396067526542)"
V155715,5/28/2013 11:08,Closed,116.2,,Unsafe and Dangerous,38,40,Gardner,ST,Allston,MA,2134,21,hodara  prop management,468 commonwealth ave,boston,ma,02132,62610,42.35380661349053,-71.12964062,"(42.35380661349053, -71.12964061726458)"
V190615,5/29/2014 10:27,Open,105.1,,Failure to Obtain Permit,2181,,Washington,ST,Roxbury,MA,2119,9,7790 Stables Dr.,,Atlanta,GA,30350,156299,42.33135382477985,-71.08270955,"(42.33135382477985, -71.08270955444979)"
V365633,1/23/2018 9:32,Closed,3307.1,,Protection of Adj. Property,197,,London,ST,East Boston,MA,2128,1,197 LONDON ST,,EAST BOSTON,MA,02128,87033,42.375079491706245,-71.03674036,"(42.375079491706245, -71.03674036146937)"
V421660,10/19/2018 15:09,Closed,116.1,,Unsafe and Dangerous,702,,Massachusetts,AVE,Roxbury,MA,2118,8,28 Damrell St #101,,Boston,MA,02127,92635,42.33519954439036,-71.07502054,"(42.335199544390356, -71.07502053647005)"
V256603,9/3/2015 13:18,Open,105.1,,Failure to Obtain Permit,563,,Ashmont,ST,Dorchester,MA,2122,16,563 ASHMONT STREET,,DORCHESTER,MA,02122,5503,42.28932951492488,-71.05067058,"(42.28932951492488, -71.05067058402699)"
V161331,7/29/2013 11:00,Open,230.79,,Size and Rating,5,,Lexington,AVE,Charlestown,MA,2129,2,5 LEXINGTON AV,,CHARLESTOWN,MA,02129,85404,42.37762752045816,-71.05972341,"(42.377627520458155, -71.05972340736493)"
V60196,3/22/2010 11:20,Closed,5113.3,,Compliance with Permit,49, ,Faywood,AVE,East Boston,MA,2128,1,49 FAYWOOD AVE,,EAST BOSTON,MA,02128,57120,42.39079944609516,-71.00124025,"(42.39079944609516, -71.00124024639996)"
V157121,10/27/2014 10:27,Closed,1001.3.3,,,161,,Intervale,ST,Dorchester,MA,2121,14,40 BONNEY LN,,DEDHAM,MA,02026,78739,42.309209546103325,-71.07450059,"(42.309209546103325, -71.07450059281474)"
V254021,11/9/2015 13:34,Open,104.6,,Right of Entry,1,,Buckley,AVE,Jamaica Plain,MA,2130,10,320 Washington Street,Suite 3FF,Brookline,MA,02445,23202,42.32242958430366,-71.10415063,"(42.32242958430366, -71.10415062981194)"
V272169,12/7/2015 11:45,Open,107.4,,Failed to comply w permit term,77,,Waumbeck,ST,Dorchester,MA,2121,12,77 WAUMBECK ST,,DORCHESTER,MA,02121,146407,42.315089565999024,-71.08935061,"(42.315089565999024, -71.08935061330281)"
V136727,9/26/2012 14:52,Closed,116.2,,Unsafe and Dangerous,514,,Sumner,ST,East Boston,MA,2128,1,40 Everett st,,Boston,MA,02128,132512,42.36490948341453,-71.03017037,"(42.36490948341453, -71.030170368696)"
V210409,3/2/2015 10:36,Closed,104.6,,Right of Entry,163,,Calumet,ST,Mission Hill,MA,2120,10,300 TRADE CTR STE 5410,,WOBURN,MA,01801,24947,42.32945958,-71.10220061,"(42.329459581022796, -71.10220060971004)"
V383935,2/14/2018 9:28,Closed,105.1,,Failure to Obtain Permit,106,108,Austin,ST,Hyde Park,MA,2136,18,106-108 AUSTIN ST,,HYDE PARK,MA,02136,6696,42.26215762427721,-71.12596181,"(42.26215762427721, -71.12596181398027)"
V529005,12/8/2020 12:24,Closed,116.2,,Unsafe and Dangerous,380,380H,Eighth,ST,South Boston,MA,2127,7,"380 East Eighth Street, Unit 2",,South Boston,MA,02127,52111,42.33141950527647,-71.04592048,"(42.331419505276465, -71.04592047900482)"
V661348,2/13/2023 10:01,Open,102.8,,Maintenance,386,,Eighth,ST,South Boston,MA,2127,7,55 BRUSH HILL LA,C/O WALTER J KIRLEY JR,MILTON,MA,02186,52115,42.33148950547416,-71.04572048,"(42.33148950547416, -71.04572047816912)"
V681264,6/20/2023 13:58,Open,1001.3.2,,Testing & Certification,174,,Commonwealth,AVE,Boston,MA,2116,5,174 COMMONWEALTH AVE,,BOSTON,MA,02116,38560,42.351159548321945,-71.07919051,"(42.351159548321945, -71.07919051002361)"
V69601,6/10/2010 14:03,Closed,121.2,,Unsafe and Dangerous,11,,Hesston,TER,Dorchester,MA,2125,13,1209 Orange St,,Wilmington,DE,19801,73106,42.31374953,-71.06071055,"(42.3137495266156, -71.06071055172548)"
V403600,7/25/2018 8:51,Closed,116.2,,Unsafe and Dangerous,87,,Mount Ida,RD,Dorchester,MA,2122,15,87 MT IDA RD,,DORCHESTER,MA,02122,98353,42.30412953154617,-71.06380058,"(42.30412953154617, -71.06380058049645)"
V320964,2/14/2017 15:34,Closed,116.2,,Unsafe and Dangerous,59,,Gove,ST,East Boston,MA,2128,1,163 MARLBOROUGH ST,Unit 1A,BOSTON,MA,02116,65622,42.37098589219173,-71.03689873,"(42.37098589219173, -71.03689873183147)"
V114406,2/21/2012 10:13,Closed,104.6,,Right of Entry,11,13,Marion,ST,East Boston,MA,2128,1,3145 WASHINGTON ST,,JAMAICA PLAIN,MA,02130,89958,42.38009949348324,-71.03883036,"(42.38009949348324, -71.03883035517131)"
V142708,12/27/2012 12:48,Closed,111.1,,Certificate of Occupancy,238,,Columbia,RD,Dorchester,MA,2121,14,79 EDWARD KELLEHER DR,,STOUGHTON,MA,02072-3178,35192,42.307969547651176,-71.0759206,"(42.307969547651176, -71.07592059862795)"
V173980,12/13/2013 10:50,Open,116.2,,Unsafe and Dangerous,19,,Bellvista,RD,Brighton,MA,2134,21,9 Tillinghast Drive #9,,Hingham,MA,02043,14064,42.34622962553399,-71.13804065,"(42.34622962553399, -71.13804065275153)"
V75897,8/5/2010 12:18,Closed,119.2,,Unlawful Continuance,56,,Green,ST,Charlestown,MA,2129,2,424 Jamaica Way,,Jamaica Plain,MA,02130,66278,42.37752952404456,-71.06254041,"(42.37752952404456, -71.06254041336281)"
V198085,7/7/2014 16:15,Closed,1001.3.2,,Testing & Certification,34,,Russell,ST,Boston,MA,2114,3,14 Millett Ln.,,Swampscott,MA,01907-2117,119771,42.36017952949325,-71.06585046,"(42.36017952949325, -71.06585046005894)"
V568870,7/27/2021 8:58,Closed,105.1,,Failure to Obtain Permit,919,,Beacon,ST,Boston,MA,2215,21,C/O GRAHAM WILSON,919 BEACON STREET #1,BOSTON,MA,02215,12420,42.34595958389508,-71.10626058,"(42.34595958389508, -71.10626058199259)"
V72785,7/12/2010 9:33,Closed,121,,Unsafe Structure,13,15,Charles,ST,Boston,MA,2114,5,11 Charles St,,Boston,MA,02114,163153,42.35663319388589,-71.06938892,"(42.35663319388589, -71.06938892261212)"
V233553,4/9/2015 9:42,Closed,102.8,,Maintenance,3,,Murray,CT,East Boston,MA,2128,1,3 MURRAY CT,,EAST BOSTON,MA,02128-2703,99547,42.36751649304433,-71.03794738,"(42.36751649304433, -71.0379473809175)"
V340751,4/14/2017 11:45,Open,3-Apr,,Building or Use of Premise req,1625,,VFW,PW,West Roxbury,MA,2132,20,275 N PEARL ST,,BROCKTON,MA,02302,140326,42.264556656150894,-71.16920435,"(42.264556656150894, -71.1692043497172)"
V108227,9/12/2011 10:54,Closed,105.1,,Failure to Obtain Permit,22,,Munroe,TER,Dorchester,MA,2122,16,22 S MUNROE TE,,DORCHESTER,MA,02122,99438,42.291999516183004,-71.05179058,"(42.291999516183004, -71.05179058005889)"
V148489,3/4/2013 10:15,Closed,116.2,,Unsafe and Dangerous,82,,Marion,ST,East Boston,MA,2128,1,APT 1,278 MAVERICK ST,EAST BOSTON,MA,02128,90068,42.37826949158668,-71.03715036,"(42.37826949158668, -71.03715035528965)"
V549275,2/28/2022 15:32,Closed,107.4,,Failed to comply w permit term,40,42,Soley,ST,Charlestown,MA,2129,2,"42 Soley St, Unit 40-2",,Charlestown,MA,02129,128351,42.374915522572536,-71.06126342,"(42.374915522572536, -71.06126341681593)"
V610991,4/20/2022 12:24,Open,1001.3.2,,Testing & Certification,117,,Saint Botolph,ST,Boston,MA,2115,4,117 SAINT BOTOLPH STREET,,BOSTON,MA,02115,120638,42.344439551896734,-71.08168053,"(42.344439551896734, -71.08168053022496)"
V613734,5/10/2022 11:23,Open,1001.3.2,,Testing & Certification,41,,Orleans,ST,East Boston,MA,2128,1,41 ORLEANS STREET,,EAST BOSTON,MA,02128,105958,42.36777949350561,-71.03804038,"(42.36777949350561, -71.03804038030732)"
V122279,4/17/2012 8:40,Closed,105.1,,Failure to Obtain Permit,82,,Thompson,ST,Hyde Park,MA,2136,18,82 THOMPSON ST,,HYDE PARK,MA,02136-1654,135752,42.25076963850659,-71.13496086,"(42.25076963850659, -71.13496086010491)"
V491823,3/17/2020 11:18,Open,116.1,,Unsafe and Dangerous,121,139,Hampden,ST,Roxbury,MA,2119,8,"75 Federal St, 4th Floor",,Boston,MA,02110,419664,42.32867354294955,-71.07521515,"(42.32867354294955, -71.07521515391439)"
V644009,11/14/2022 15:51,Open,105.1,,Failure to Obtain Permit,310,,Spring,ST,West Roxbury,MA,2132,20,310 SPRING STREET,,WEST ROXBURY,MA,02132,129580,42.272029687187874,-71.1717109,"(42.272029687187874, -71.17171089501711)"
V271243,12/2/2015 9:00,Closed,116.2,,Unsafe and Dangerous,12,,Corman,RD,Mattapan,MA,2126,18,247 Commonwealth Avenue,,CONCORD,MA,01742,42873,42.271979587854055,-71.10172074,"(42.271979587854055, -71.10172073766131)"
V167126,9/27/2013 10:57,Closed,116.2,,Unsafe and Dangerous,23,,Boutwell,ST,Dorchester,MA,2122,16,51 KINGS TER,,PEMBROKE,MA,02359,17357,42.291589515090415,-71.05097058,"(42.291589515090415, -71.05097057910112)"
V444476,5/1/2019 11:04,Closed,105.1,,Failure to Obtain Permit,32,,Orleans,ST,East Boston,MA,2128,1,C/O MICHAEL RABB,420 SARATOGA STREET,EAST BOSTON,MA,02128,105956,42.367639494020736,-71.03854038,"(42.367639494020736, -71.03854038150331)"
V102477,7/11/2011 12:31,Closed,102.2,,Other Laws,580,,Blue Hill,AVE,Dorchester,MA,2121,14,660 Centre St,,Jamaica Plain,MA,02130,16512,42.30434956013572,-71.08449063,"(42.30434956013572, -71.08449062619778)"
V178889,3/5/2014 12:59,Open,760.24B,,Circuit Intensity,731,733,River,ST,Mattapan,MA,2126,18,mayo group,1495 hancock street,quincy,ma,02189,116714,42.263819590129216,-71.10271076,"(42.263819590129216, -71.10271075788826)"
V89766,1/11/2011 13:58,Open,Chapter 103.1,,Unsafe Maintenance,365,,Sumner,ST,East Boston,MA,2128,1,6 Johnson St,,Provincetown,MA,02657,132427,42.36657484869488,-71.03481919,"(42.36657484869488, -71.03481919267979)"
V580810,9/22/2021 11:18,Open,105.1,,Failure to Obtain Permit,100,102,Seaver,ST,Dorchester,MA,2121,12,810 PARKER ST,,ROXBURY,MA,02120,124139,42.310539570466965,-71.09241063,"(42.310539570466965, -71.09241063017684)"
V340250,4/12/2017 9:09,Closed,105.1,,Failure to Obtain Permit,27,,Lawrence,AVE,Dorchester,MA,2121,14,27 LAWRENCE AVE,,DORCHESTER,MA,02121,84520,42.31292955146533,-71.07895059,"(42.31292955146533, -71.07895059465301)"
V71195,6/25/2010 9:18,Closed,110.1,,Inspections,27,,Dudley,ST,Roxbury,MA,2119,9,27 DUDLEY ST #3,,BOSTON,MA,02119,49673,42.329269563633424,-71.08899058,"(42.329269563633424, -71.08899058027467)"
V230071,3/10/2015 9:09,Closed,105.1,,Failure to Obtain Permit,108,112,South,ST,Boston,MA,2111,3,C/O NORTH STAR MGMT,27 DRYDOCK AVE,BOSTON,MA,02210,128507,42.35099951928434,-71.05713046,"(42.35099951928434, -71.0571304610655)"
V691051,8/3/2023 14:24,Open,Ch.143-3L,,Elec work w/o per,5,,Browning,AVE,Dorchester,MA,2124,14,5 BROWNING AVE,,DORCHESTER,MA,02124,22810,42.29451955612332,-71.08074064,"(42.29451955612332, -71.08074063956377)"
V646744,11/23/2022 11:24,Open,102.8,,Maintenance,14,,Mystic,ST,Charlestown,MA,2129,2,C/O RACHEL LOBDELL,14 MYSTIC STREET,CHARLESTOWN,MA,02129,99957,42.37965952451542,-71.06294041,"(42.37965952451542, -71.06294040994956)"
V435393,5/29/2019 10:31,Closed,3307.1,,Protection of Adj. Property,133,,Nonantum,ST,Brighton,MA,2135,22,133 Nonantum Street,Unit 2,Brighton,MA,02135,102977,42.35034967214084,-71.17416072,"(42.35034967214084, -71.17416072497186)"
V484943,2/9/2021 9:02,Closed,1001.3.2,,Testing & Certification,22,,Irving,ST,Boston,MA,2114,3,129 FOREST STREET,,NORWELl,MA,02061,78920,42.36060953,-71.06625046,"(42.3606095299969, -71.06625045954931)"
V313049,8/12/2016 10:51,Closed,105.1,,Failure to Obtain Permit,251,,Cornell,ST,Roslindale,MA,2131,20,251 CORNELL,,ROSLINDALE,MA,02131,42991,42.28052963597744,-71.1367108,"(42.28052963597744, -71.13671079702283)"
V139309,10/25/2012 14:34,Open,111.1,,Certificate of Occupancy,355,359,Congress,ST,Boston,MA,2210,6,33 Sleeper St #407,,Boston,ma,02210,42108,42.35005085430223,-71.04848137,"(42.35005085430223, -71.04848137200719)"
V409044,7/30/2018 9:15,Open,105.1,,Failure to Obtain Permit,26,,Enfield,ST,Jamaica Plain,MA,2130,19,26 Enfield Street,Unit 1,Jamaica Plain,MA,02130,53910,42.31573959329069,-71.11005066,"(42.315739593290694, -71.1100506584654)"
V597799,2/28/2022 15:55,Closed,3-Apr,,Building or Use of Premise req,21,,Brainard,ST,Hyde Park,MA,2136,18,388 HUNTINGTON AV,,HYDE PARK,MA,02136,19308,42.255279634639805,-71.13272085,"(42.255279634639805, -71.13272084506643)"
V86281,11/9/2010 15:50,Closed,110.27(A),,Guarding of Live Ports,1292A,1292,Blue Hill,AV,Mattapan,MA,2126,18,180 West Selden St,,Boston,MA,02126,162246,42.27941575,-71.09269117,"(42.2794157542958, -71.09269117351263)"
V582990,1/3/2022 11:30,Open,116,,Unsafe Structures,97,,Southern,AVE,Dorchester,MA,2124,17,97 SOUTHERN AVE,,DORCHESTER,MA,02124,129178,42.29003955096108,-71.07643064,"(42.290039550961076, -71.07643063992465)"
V304664,6/14/2016 10:02,Closed,5103.1,,Maintenance,17,,Hinckley,ST,Dorchester,MA,2125,13,15 Teddy Dr,,Avon,MA,02322,74337,42.31757952580609,-71.06010054,"(42.31757952580609, -71.06010054155608)"
V590118,1/3/2022 14:58,Closed,116,,Unsafe Structures,136,,Gladstone,ST,East Boston,MA,2128,1,136 GLADSTONE STREET,,EAST BOSTON,MA,02128,63818,42.38938245221736,-71.00650426,"(42.38938245221736, -71.0065042612595)"
V487058,2/26/2020 14:51,Closed,102.8,,Maintenance,80,84,Chestnut,ST,Boston,MA,2114,5,78 Charles St,,Boston,MA,02114,163308,42.35684012318031,-71.07005152,"(42.356840123180305, -71.07005151986368)"
V371836,11/9/2017 9:35,Open,110.3.11,,Workmanship,100,,Woodhaven,ST,Mattapan,MA,2126,18,100 WOODHAVEN ST,,MATTAPAN,MA,02126,151555,42.27103958161744,-71.09732073,"(42.27103958161744, -71.09732072929769)"
V505689,8/11/2020 12:43,Closed,3-Apr,,Building or Use of Premise req,6,,Belnel,RD,Mattapan,MA,2126,18,6 BELNEL ROAD,,HYDE PARK,MA,02136,14235,42.26309959248713,-71.10424076,"(42.26309959248713, -71.10424076335566)"
V440336,9/24/2020 14:11,Closed,105.1,,Failure to Obtain Permit,285,,Washington,ST,Dorchester,MA,2121,14,19 ALLENS TRAIL,,GROTON,MA,01450,146014,42.30037954880524,-71.07557061,"(42.30037954880524, -71.0755706148534)"
V144692,4/30/2013 11:47,Closed,107.4,,Failed to comply w permit term,477,489,Cambridge,ST,Allston,MA,2134,22,arin realty co,17 lincoln st 2 nd floor,newton,ma,02461,25142,42.35379962321902,-71.13733063,"(42.35379962321902, -71.13733063470457)"
V229157,10/19/2015 13:43,Closed,105.1,,Failure to Obtain Permit,815,819,Morton,ST,Mattapan,MA,2126,14,C/O Kensington Investments,15 Argyle Terrace,Dorchester,MA,02124,97807,42.281859567655225,-71.08794068,"(42.281859567655225, -71.08794068410418)"
V423466,4/8/2019 14:26,Open,105.1,,Failure to Obtain Permit,17,19,Corwin,ST,Dorchester,MA,2122,15,32 Virginia St,,Dorchester,MA,02125,43222,42.30233952963439,-71.06214058,"(42.30233952963439, -71.06214058069303)"
V563336,6/4/2021 13:10,Closed,116.1,,Unsafe and Dangerous,571C,573,Washington,St,Dorchester,MA,2124,17,619 CENTRE ST,,JAMAICA PLAIN,MA,02130,146113,42.29161126323298,-71.07198709,"(42.29161126323298, -71.07198709094156)"
V161104,7/25/2013 11:26,Closed,105.1,,Failure to Obtain Permit,9,,Radnor,RD,Brighton,MA,2135,22,384 dudley rd,,newton,MA,02459,114440,42.34048965458765,-71.15874071,"(42.34048965458765, -71.15874071215046)"
V109421,9/28/2011 11:35,Open,5313.2.7,,Fire Warning Systems,877,,Saratoga,ST,East Boston,MA,2128,1,875 SARATOGA ST,,EAST BOSTON,MA,02128,122867,42.38542945990165,-71.01228028,"(42.385429459901644, -71.0122802830267)"
V477896,12/20/2019 9:26,Open,105.1,,Failure to Obtain Permit,23R,,Tonawanda,ST,Dorchester,MA,2124,17,23 TONAWANDA ST,,Dorchester,MA,02124,347403,42.29932345353712,-71.0661555,"(42.29932345353712, -71.066155498284)"
V152228,4/16/2013 10:29,Closed,1001.3.2,,Testing & Certification,7,,Johnny,CT,Boston,MA,2111,3,740 BOYLSTON ST,,CHESTNUT HILL,MA,02128,79890,42.348013527366575,-71.06318248,"(42.348013527366575, -71.06318248059021)"
V380966,1/19/2018 10:36,Closed,104.6,,Right of Entry,14,,Lindsey,ST,Dorchester,MA,2124,17,14 LINDSEY ST,,DORCHESTER,MA,02124,86523,42.297709537563286,-71.0677806,"(42.297709537563286, -71.06778060386864)"
V131820,8/20/2012 11:43,Closed,116.2,,Unsafe and Dangerous,120,122,Milk,ST,Boston,MA,2109,3,"120 Milk St, Ste 200",,Boston,MA,02109,167693,42.35796327556064,-71.05425326,"(42.35796327556064, -71.0542532569358)"
V176838,2/6/2014 12:12,Closed,105.1,,Failure to Obtain Permit,491,,Weld,ST,West Roxbury,MA,2132,20,491 WELD ST,,W ROXBURY,MA,02114,147163,42.293419655390665,-71.1526308,"(42.293419655390665, -71.15263080399775)"
V239061,5/15/2015 10:26,Closed,101.4.4,,Maintenance,8,,Greenville,ST,Roxbury,MA,2119,8,8 Greenville Street,,ROXBURY,MA,02119-0008,66742,42.32794955188112,-71.08051756,"(42.32794955188112, -71.08051756488457)"
V435250,2/8/2019 14:14,Closed,102.8,,Maintenance,2249,2259,Washington,ST,Roxbury,MA,2119,9,17 Willow Park,,Wellesley,MA,02481,144479,42.33076355558871,-71.08334456,"(42.33076355558871, -71.0833445648159)"
V107947,9/7/2011 10:36,Closed,400.8,,Uses not permitted,100,,Mount Pleasant,AVE,Roxbury,MA,2119,8,41 W 108 St,,New York,Ny,10025,98371,42.32553554823393,-71.07741456,"(42.32553554823393, -71.07741456322405)"
V133049,8/31/2012 14:30,Closed,116.2,,Unsafe and Dangerous,22,,Regina,RD,Dorchester,MA,2124,17,26 Court St,,Boston,Ma,02108,115184,42.29559954274622,-71.07085061,"(42.29559954274622, -71.0708506148729)"
V139030,10/23/2012 11:06,Closed,116.2,,Unsafe and Dangerous,31,33,Larch,ST,Brighton,MA,2135,22,"1 Derby St, Suite #5",,Hingham,Ma,02043,84038,42.34731866395664,-71.16695872,"(42.347318663956635, -71.16695871543789)"
V119656,3/20/2012 10:53,Closed,105.1,,Failure to Obtain Permit,27,,Ashford,ST,Allston,MA,2134,21,175 BOSTON POST ROAD,,WAYLAND,MA,01778,5129,42.35427961185336,-71.12827061,"(42.35427961185336, -71.12827061290345)"
V564935,6/22/2021 9:09,Closed,105.1,,Failure to Obtain Permit,23,,Roseland,ST,Dorchester,MA,2124,16,23 ROSELAND ST,,DORCHESTER,MA,02124,118395,42.29094953,-71.06353061,"(42.2909495327187, -71.06353060863701)"
V528880,12/7/2020 11:40,Open,116.1,,Unsafe and Dangerous,100,,Mount Pleasant,AVE,Roxbury,MA,2119,8,11 EDGEWATER DRIVE,,DOVER,MA,02030,98371,42.32553554823393,-71.07741456,"(42.32553554823393, -71.07741456322405)"
V354525,7/19/2017 14:10,Closed,115.1,,Unsafe Structure,3,,Pulaski,AVE,South Boston,MA,2127,6,1525 S BELTLINE ROAD,,COPPELL,TX,75019,113554,42.336869505877765,-71.04638047,"(42.336869505877765, -71.04638046843297)"
V153078,4/29/2013 11:39,Open,105.1,,Failure to Obtain Permit,1410,,Columbia,RD,South Boston,MA,2127,7,fairfield bay tower prop acct ste 200,5510 morehouse drive,san diego,ca,92121,163547,42.33093617,-71.04359519,"(42.3309361728305, -71.04359519130632)"
V136308,9/25/2012 14:39,Closed,R105.1,,Failure to Secure Permit,11, ,Claybourne,ST,Dorchester,MA,2124,17,121 WOODROW AVE,,DORCHESTER,MA,02124,33604,42.29908954487205,-71.07273061,"(42.29908954487205, -71.07273061168614)"
V59741,3/11/2010 11:56,Closed,120.1,,Illegally occupied prior to CO,920,,River,ST,Hyde Park,MA,2136,18,920 River St,,Hyde Park,MA,02136,116753,42.2613096,-71.11156078,"(42.2613096034269, -71.11156078409071)"
V253220,10/19/2015 14:44,Open,107.4,,Failed to comply w permit term,365,,Park,ST,Dorchester,MA,2124,17,"5 LEROY ST, 1ST FL",,DORCHESTER,MA,02122,107354,42.29635954,-71.06927061,"(42.2963595403856, -71.0692706096257)"
V388915,3/19/2018 9:18,Open,102.8,,Maintenance,400, ,Marlborough,ST,Boston,MA,2115,5,400 Marlborough Street,Unit 5,Boston,MA,02115,91232,42.35006956026981,-71.08818053,"(42.35006956026981, -71.0881805324506)"
V129602,7/20/2012 9:16,Closed,105.1,,Failure to Obtain Permit,157,,Maverick,ST,East Boston,MA,2128,1,167 ORIENT AVE,,PAWTUCKET,RI,02860,92960,42.36965949297349,-71.03814038,"(42.36965949297349, -71.03814037652998)"
V496001,6/8/2020 10:29,Open,116.1,,Unsafe and Dangerous,1426,,Columbia,RD,South Boston,MA,2127,7,7 ROBERT AREY DR,,RANDOLPH,MA,02368,35058,42.33063950145391,-71.04302047,"(42.33063950145391, -71.04302047455175)"
V234098,6/2/2015 10:50,Closed,1001.3.3,,,7,9,Henchman,ST,Boston,MA,2113,3,421 Hanover St,,Boston,MA,02113,72863,42.36703951370569,-71.05365042,"(42.36703951370569, -71.05365041716374)"
V317738,9/12/2016 14:54,Closed,116.2,,Unsafe and Dangerous,16,,Homestead,ST,Dorchester,MA,2121,12,16 HOMESTEAD ST,,DORCHESTER,MA,02121,75107,42.31360957103612,-71.09350063,"(42.31360957103612, -71.09350062567)"
V62530,4/12/2010 12:11,Closed,120.1,,Illegally occupied prior to CO,161,,H,ST,South Boston,MA,2127,7,161 H St,,S. Boston,MA,02127,67815,42.332339499581984,-71.04161047,"(42.332339499581984, -71.04161046736424)"
V282800,7/22/2016 11:47,Closed,116.2,,Unsafe and Dangerous,244,246R,Hanover,ST,Boston,MA,2113,3,20 Parmenter St,,BOSTON,MA,02113,69068,42.363487385423376,-71.05522098,"(42.363487385423376, -71.05522098065104)"
V268505,11/13/2015 9:46,Open,104.6,,Right of Entry,6,,Bucknam,ST,Mission Hill,MA,2120,10,6 BUCKNAM ST,,ROXBURY,MA,02120,23219,42.32703958437424,-71.10445062,"(42.32703958437424, -71.10445062051896)"
V185147,4/28/2014 9:05,Closed,105.1,,Failure to Obtain Permit,252, ,Newton,ST,Boston,MA,2115,4,29 Harlow Street,,North Easton,MA,02356,102573,42.344729551078295,-71.08122053,"(42.344729551078295, -71.08122052890911)"
V218914,12/9/2014 11:15,Closed,116.2,,Unsafe and Dangerous,126,,Salem,ST,Boston,MA,2113,3,65 East India Row,Unit 28E,Boston,MA,02110,121741,42.36491400906501,-71.05557413,"(42.36491400906501, -71.05557412821167)"
V120268,3/27/2012 15:10,Closed,3-Apr,,Building or Use of Premise req,79,,Willow,CT,Dorchester,MA,2125,7,79 WILLOW CT,,DORCHESTER,MA,02125,150197,42.324709529777095,-71.06386053,"(42.324709529777095, -71.063860534847)"
V657342,1/19/2023 15:36,Closed,3307.1,,Protection of Adj. Property,1002,1004,Bennington,ST,East Boston,MA,2128,1,10 OakHill Road,,Natick,MA,01760,14508,42.38688945274463,-71.00680027,"(42.38688945274463, -71.006800267532)"
V434870,2/5/2019 11:51,Closed,116.1,,Unsafe and Dangerous,18,,Winchester,ST,Boston,MA,2116,5,"57 Broadway Park, #16",,CHESTNUT HILL,MA,02467,150583,42.34960953312139,-71.06778049,"(42.34960953312139, -71.06778048802657)"
V613186,5/5/2022 8:22,Open,1001.3.2,,Testing & Certification,698,,Huntington,AVE,Mission Hill,MA,2120,10,35 WIGGLESWORTH ST,,ROXBURY,MA,02120,76403,42.33451958214358,-71.1032906,"(42.33451958214358, -71.10329060073663)"
V119508,3/16/2012 10:22,Closed,116.2,,Unsafe and Dangerous,73,,Maywood,ST,Roxbury,MA,2119,12,404 South Huntington Avenue,,Jamaica Plain,MA,02130,93369,42.315979551237305,-71.07883059,"(42.315979551237305, -71.0788305873614)"
V447754,5/30/2019 10:38,Closed,102.8,,Maintenance,70,,Margin,ST,Boston,MA,2113,3,70 N MARGIN STREET,,BOSTON,MA,02113,89713,42.36513851760592,-71.05684243,"(42.36513851760592, -71.05684242816673)"
V120136,4/24/2012 9:08,Closed,116.2,,Unsafe and Dangerous,29,49,Norfolk,AVE,Roxbury,MA,2119,8,8 Brookside Rd,,WESTFORD,MA,01886,103119,42.32818354316812,-71.07401755,"(42.32818354316812, -71.07401754952834)"
V87463,11/26/2010 10:18,Closed,121.2,,Unsafe and Dangerous,222,224,Quincy,ST,Dorchester,MA,2125,13,26 Court St,,Boston,MA,02108,114038,42.312722174496855,-71.07354481,"(42.312722174496855, -71.07354480804798)"
V209740,2/19/2015 10:05,Closed,105.1,,Failure to Obtain Permit,111, ,Salem,ST,Boston,MA,2113,3,66 Grant Avenue,,MEDFORD,MA,02155,352077,42.36426951588226,-71.05536043,"(42.36426951588226, -71.05536042703528)"
V236238,1/5/2016 15:56,Open,105.1,,Failure to Obtain Permit,16,26,Hancock,ST,Dorchester,MA,2125,13,159A Old Colony Avenue,,South Boston,MA,02127,68891,42.31513153326728,-71.06580356,"(42.31513153326728, -71.06580356014923)"
V169140,10/11/2013 10:29,Closed,1003.6,,Means of Egress,339,341,Meridian,ST,East Boston,MA,2128,1,229 Everett Street,,East Boston,Ma,02128,94494,42.37830949397775,-71.03898036,"(42.378309493977746, -71.03898035920018)"
V114379,12/30/2011 14:14,Closed,101.4.4,,Maintenance,205,,London,ST,East Boston,MA,2128,1,205 London St,,East Boston,MA,02128,87039,42.37522949115244,-71.03658036,"(42.37522949115244, -71.03658036060955)"
V270265,11/24/2015 9:32,Closed,110.7,,Periodic Inspections,700,,Columbus,AVE,Mission Hill,MA,2120,9,"C/O JERRY ZIOLA, UTILITIES MGR",288 SAINT BOTOLPH ST,BOSTON,MA,02115-5022,36069,42.33793956,-71.08478055,"(42.337939556493595, -71.0847805516196)"
V312675,8/10/2016 10:13,Closed,116.2,,Unsafe and Dangerous,570,,Gallivan,BLVD,Dorchester,MA,2124,16,570 GALLIVAN BLVD,,DORCHESTER,MA,02124,62358,42.28320951921063,-71.0532506,"(42.28320951921063, -71.05325060275062)"
V118349,3/1/2012 15:24,Closed,1001.3.2,,Testing & Certification,254,,Newbury,ST,Boston,MA,2116,5,Gurbir- Tanu LLC,8 Newbury St,BOSTON,MA,02116,101470,42.34930955327446,-71.08274052,"(42.34930955327446, -71.08274052201112)"
V73671,7/19/2010 11:46,Closed,Chapter 103.1,,Unsafe Maintenance,690,710,American Legion,HWY,Roslindale,MA,2131,18,123 Raffaele Rd,,Waltham,MA,02454,3179,42.28333360077879,-71.11203474,"(42.28333360077879, -71.11203473518603)"
V129940,7/25/2012 11:29,Closed,210.25 B,,Common area branch circuits,26,,Broadway,,South Boston,MA,2127,6,"John F Cincota, Agent",5 Shawmut Road,Canton,Ma,02021,157818,42.34281884702549,-71.05657314,"(42.342818847025484, -71.05657313913983)"
V290450,3/17/2016 8:28,Closed,111.1,,Certificate of Occupancy,225,,Franklin,ST,Boston,MA,2110,3,c/o Oxford Properties Group,"225 Franklin Street, Suite 1735",Boston,MA,02110,158047,42.356135246488286,-71.05406879,"(42.356135246488286, -71.05406879067442)"
V190354,5/28/2014 12:53,Closed,116.2,,Unsafe and Dangerous,602,604,Hyde Park,AVE,Roslindale,MA,2131,18,40 Iffley Road,Unit 2,Jamaica Plain,MA,02130,77435,42.27999461041178,-71.11867276,"(42.27999461041178, -71.11867275782961)"
V392641,4/11/2018 9:21,Closed,116.2,,Unsafe and Dangerous,250,,Ashmont,ST,Dorchester,MA,2124,16,250 ASHMONT ST,,DORCHESTER,MA,02124,5368,42.28684953081703,-71.06205061,"(42.28684953081703, -71.06205061456029)"
V593267,12/21/2021 13:29,Open,116,,Unsafe Structures,10,,Hartford,ST,Dorchester,MA,2125,13,10 HARTFORD ST #2,,DORCHESTER,MA,02125,70197,42.31773954366306,-71.07321057,"(42.31773954366306, -71.07321057070882)"
V246914,9/29/2015 12:00,Closed,1003.3.4,,Clear Width,2,,Adams,ST,Charlestown,MA,2129,2,2 ADAMS ST,,CHARLESTOWN,MA,02129,312,42.37478300191213,-71.05998889,"(42.37478300191213, -71.05998889023404)"
V428229,12/5/2018 12:42,Open,105.6,,Suspension or Revocation,69,,Winthrop,ST,Roxbury,MA,2119,12,2 CLEVELAND PK,,ROXBURY,MA,02119,151046,42.32481955,-71.07897057,"(42.3248195506137, -71.07897056811441)"
V434934,2/6/2019 10:18,Closed,105.1,,Failure to Obtain Permit,34,,Perrin,ST,Roxbury,MA,2119,12,61 CENTRE STREET,,BOSTON,MA,02119,109590,42.32205955,-71.07837057,"(42.3220595496861, -71.07837057315415)"
V73213,7/14/2010 9:09,Closed,121.1,,Unsafe and Dangerous,75,77,Meridian,ST,East Boston,MA,2128,1,60 Leyden St,,East Boston,MA,02127,94641,42.372015494447055,-71.03880337,"(42.372015494447055, -71.03880337270351)"
V472742,11/18/2019 10:59,Closed,104.6,,Right of Entry,414,,Saratoga,ST,East Boston,MA,2128,1,414 SARATOGA ST,,EAST BOSTON,MA,02128,122645,42.37938148164876,-71.02936534,"(42.37938148164876, -71.02936533534393)"
V561533,5/27/2021 11:09,Open,1001.3.2,,Testing & Certification,238,246,Huntington,AVE,Jamaica Plain,MA,2130,10,131 PARK DR STE 1,,BOSTON,MA,02215,76666,42.32481913159253,-71.11198152,"(42.32481913159253, -71.11198152316142)"
V213642,10/17/2014 10:21,Closed,104.6,,Right of Entry,76,78,Nelson,ST,Dorchester,MA,2124,17,76 Nelson Street,Unit 1,Dorchester Center,MA,02124,100555,42.28092955824609,-71.08156067,"(42.28092955824609, -71.08156067177448)"
V229777,3/6/2015 15:47,Closed,110.7,,Periodic Inspections,11,25,Stuart,ST,Boston,MA,2116,3,8401 COLESVILLE RD,STE 600,Silver Spring,MD,20910,131638,42.351169527439126,-71.06359047,"(42.351169527439126, -71.0635904743497)"
V483535,5/6/2020 10:48,Open,116.1,,Unsafe and Dangerous,587,,Albany,ST,Roxbury,MA,2118,8,587 ALBANY,,BOSTON,MA,02118,1552,42.33753953511958,-71.06825052,"(42.33753953511958, -71.06825051605192)"
V213119,12/1/2014 15:19,Closed,105.1,,Failure to Obtain Permit,131,,Grove,ST,West Roxbury,MA,2132,20,131 Grove Street,,West Roxbury,MA,02132,67398,42.26494967045549,-71.15870088,"(42.26494967045549, -71.15870088173372)"
V114290,1/3/2012 12:34,Closed,1001.3.2,,Testing & Certification,216,,Paris,ST,East Boston,MA,2128,1,216 PARIS ST,,EAST BOSTON,MA,02128,106508,42.37479948920173,-71.03507036,"(42.37479948920173, -71.03507035781841)"
V175687,1/23/2014 14:40,Closed,116.2,,Unsafe and Dangerous,24,,Moultrie,ST,Dorchester,MA,2124,17,559 San Ysidro Rd.,Suite 1,Santa Barbara,CA,93108,98048,42.29149954055831,-71.06909062,"(42.29149954055831, -71.06909061992013)"
V690534,8/1/2023 13:03,Open,116,,Unsafe Structures,15,,Roxton,ST,Dorchester,MA,2121,14,15 Roxton ST,,DORCHESTER,MA,02121,119285,42.29812955503437,-71.08019063,"(42.29812955503437, -71.08019063092956)"
V162255,8/8/2013 11:25,Closed,116.2,,Unsafe and Dangerous,166,,Quincy,ST,Dorchester,MA,2121,13,stamatos prop .,619 centre st,jamica plain,",a",02130,114019,42.31342954761448,-71.07577059,"(42.31342954761448, -71.07577058630056)"
V201396,7/29/2014 11:37,Closed,314.23(2),,Support Wires,454,464,Hanover,ST,Boston,MA,2113,3,1 Overlook Road,,Stoneham,MA,02180,69182,42.36694951205938,-71.05277342,"(42.36694951205938, -71.05277341538898)"
V229118,8/17/2015 11:03,Closed,116.2,,Unsafe and Dangerous,102,,Neponset,AVE,Dorchester,MA,2122,16,444 CENTRE ST,,MILTON,MA,02186-4141,100713,42.294950517472586,-71.05273058,"(42.294950517472586, -71.0527305756806)"
V185829,5/29/2014 10:19,Closed,111.1,,Certificate of Occupancy,253,255,Main,ST,Charlestown,MA,2129,2,11 Eugene Dr.,,Winchester,MA,01890,88475,42.37703953,-71.06613042,"(42.3770395285518, -71.06613042254142)"
V80546,9/7/2010 10:21,Closed,121.2,,Unsafe and Dangerous,47, ,Pratt,ST,Allston,MA,2134,21,47 PRATT ST,,ALLSTON ,MA,02134,112519,42.35504961,-71.12754061,"(42.3550496102879, -71.12754061008698)"
V128571,7/9/2012 13:31,Closed,104.6,,Right of Entry,81,,Chesbrough,RD,West Roxbury,MA,2132,20,81 CHESBROUGH RD,,WEST ROXBURY,MA,02132,30782,42.28252967836218,-71.16758086,"(42.28252967836218, -71.16758086235299)"
V162770,8/15/2013 11:11,Closed,105.1,,Failure to Obtain Permit,191,201,Sumner,ST,East Boston,MA,2128,1,199 Sumner Street,,East Boston,Ma,02128,132332,42.368879495518726,-71.04006038,"(42.368879495518726, -71.04006038199364)"
V111519,11/14/2011 11:21,Closed,101.4.4,,Maintenance,41,,Calumet,ST,Mission Hill,MA,2120,10,41 CALUMET ST,,ROXBURY,MA,02120,24983,42.33259958529312,-71.10577061,"(42.332599585293124, -71.10577061064117)"
V228170,2/24/2015 15:00,Closed,116.1,,Unsafe and Dangerous,2999,,Washington,ST,Roxbury,MA,2119,11,2999 WASHINGTON ST,APT #1,ROXBURY,MA,02119,144603,42.31756957,-71.09680062,"(42.3175695749761, -71.09680062440546)"
V264504,10/21/2015 9:56,Open,1025.1,,Emergency Escape,81,,Waumbeck,ST,Dorchester,MA,2121,12,81 WAUMBECK ST,,DORCHESTER,MA,02121,146411,42.315149565524976,-71.08964061,"(42.315149565524976, -71.08964061363582)"
V120262,3/27/2012 12:15,Closed,R105.1,,Failure to Secure Permit,23,,Roseland,ST,Dorchester,MA,2124,16,23 ROSELAND STREET,,DORCHESTER,MA,02124,118395,42.29094953,-71.06353061,"(42.2909495327187, -71.06353060863701)"
V167099,9/26/2013 13:41,Closed,104.6,,Right of Entry,85,,White,ST,East Boston,MA,2128,1,85 WHITE ST,,EAST BOSTON,MA,02128,149256,42.38042148883371,-71.03483934,"(42.38042148883371, -71.0348393449227)"
V559910,5/21/2021 10:14,Closed,102.8,,Maintenance,153,,Salem,ST,Boston,MA,2113,3,C/O DON PIZZUTI 197 PORTLAND STREET,,BOSTON,MA,02114,360068,42.36536951563088,-71.05523042,"(42.365369515630874, -71.05523042430119)"
V331675,7/20/2017 15:37,Open,3-Apr,,Building or Use of Premise req,60,,Cook,ST,Charlestown,MA,2129,2,60 Cook Street,,Charlestown,MA,02129,42342,42.38142952476859,-71.06349041,"(42.38142952476859, -71.0634904074616)"
V264578,10/21/2015 11:30,Closed,116.2,,Unsafe and Dangerous,5,,Wayne,ST,Dorchester,MA,2121,12,5 Wayne St,,Dorchester,MA,02121,146686,42.30721956056671,-71.08500062,"(42.30721956056671, -71.085000621095)"
V137981,10/11/2012 10:00,Closed,102.2,,Other Laws,3115,3125,Washington,ST,Roxbury,MA,2130,11,58 Eliot St,,Boston,MA,02130,144628,42.31492158,-71.09941964,"(42.3149215790771, -71.09941963638255)"
V259071,9/18/2015 9:44,Closed,1008.1.9.3,,Locks and Latches,57,,Charlotte,ST,Dorchester,MA,2121,14,57 CHARLOTTE ST,,DORCHESTER,MA,02121-4001,29896,42.298569560064905,-71.08417064,"(42.298569560064905, -71.08417063891842)"
V336878,3/17/2017 11:47,Closed,116.2,,Unsafe and Dangerous,59,,Lonsdale,ST,Dorchester,MA,2124,16,52 NO MUNROE TERR,,DORCHESTER,MA,02122,87237,42.29050952761577,-71.0602306,"(42.29050952761577, -71.06023060286921)"
V66089,5/12/2010 10:04,Closed,121.1,,Unsafe and Dangerous,33,35,Claymoss,RD,Brighton,MA,2135,21,33 CLAYMOSS RD,,BRIGHTON ,MA,02135,33665,42.34445563542407,-71.14529267,"(42.34445563542407, -71.14529267358945)"
V95810,4/12/2011 9:25,Open,400.8,,Uses not permitted,4065,,Washington,ST,Roslindale,MA,2131,19,38 SNELL ST,,BROCKTON,MA,02301,145101,42.29082961615627,-71.12378074,"(42.29082961615627, -71.12378074495093)"
V594366,3/24/2022 10:47,Open,105.1,,Failure to Obtain Permit,36,,Clarkwood,ST,Mattapan,MA,2126,14,36 Clarkwood St,,Dorchester,MA,02121,33562,42.28039957220116,-71.09094069,"(42.28039957220116, -71.09094069490816)"
V62301,4/8/2010 12:17,Closed,1001.3.1,,Maintenance of Exterior,21,,Branch,ST,Boston,MA,2108,5,21 BRANCH ST,,BOSTON,MA,02108,19556,42.35683953403751,-71.06860047,"(42.356839534037505, -71.06860047367766)"
V175681,1/27/2014 14:22,Open,1001.3.2,,Testing & Certification,293,297,North,ST,Boston,MA,2113,3,28 high ridge road,,BOXFORD,MA,01921,103604,42.36436951145173,-71.05163042,"(42.36436951145173, -71.05163041801805)"
V129787,7/24/2012 9:34,Closed,116.2,,Unsafe and Dangerous,21,,Prospect,ST,Charlestown,MA,2129,2,21 PROSPECT ST CONDO ASSOC,21 PROSPECT ST,CHARLESTOWN,MA,02129,113451,42.37537951779031,-71.05769041,"(42.37537951779031, -71.05769040765114)"
V96109,4/14/2011 13:59,Closed,104.6,,Right of Entry,166,,Chelsea,ST,East Boston,MA,2128,1,4 Mt Pleasant St,,SAUGUS,MA,01906,30355,42.37403949,-71.03433036,"(42.3740394883936, -71.03433035797309)"
V232986,4/3/2015 15:54,Closed,107.4,,Failed to comply w permit term,1,,Boylston,PL,Boston,MA,2116,5,C/O EMERSON COLLEGE,120 BOYLSTON ST,BOSTON,MA,02116,18638,42.352109264948254,-71.0661218,"(42.352109264948254, -71.06612179676341)"
V599470,2/14/2022 13:48,Open,116,,Unsafe Structures,43,,Nazing,ST,Dorchester,MA,2121,12,35 KINGCREST TERRACE,,RANDOLPH,MA,02368,100471,42.30707956243248,-71.08642062,"(42.307079562432484, -71.08642062435285)"
V322535,10/31/2016 9:33,Open,248 CMR 10:06,,Materials (A) Min. Standards,651,663,Warren,ST,Dorchester,MA,2121,12,657 Warren Street,,Dorchester,MA,02121,143328,42.30975555759855,-71.08301861,"(42.30975555759855, -71.08301861133154)"
V75020,1/10/2011 10:47,Open,Art. 248 CMR,,Permits to perform gas fitting,15R,,Union,ST,Charlestown,MA,2129,2,6 TREETOP LN,,LYNNFIELD,MA,01940,341867,42.37410318922287,-71.06430173,"(42.37410318922287, -71.0643017347069)"
V374911,12/4/2017 13:27,Closed,107.1,,Required Inspections,273,,Columbia,RD,Dorchester,MA,2121,14,9 TRAVERS STREET,,HAVERHILL,MA,01830,163581,42.30833721689831,-71.0738722,"(42.30833721689831, -71.07387220038146)"
V619053,6/23/2022 12:48,Closed,105.1,,Failure to Obtain Permit,251,,Lexington,ST,East Boston,MA,2128,1,251 LEXINGTON ST,,E BOSTON,MA,02128,85626,42.38010748343611,-71.03067134,"(42.38010748343611, -71.03067133664928)"
V432840,1/16/2019 8:45,Closed,1001.3.2,,Testing & Certification,12,,Hereford,ST,Boston,MA,2115,5,12 HEREFORD STREET,,BOSTON,MA,02115,72974,42.351352466483945,-71.08678399,"(42.351352466483945, -71.08678398617684)"
V155716,5/28/2013 10:55,Closed,107.4,,Failed to comply w permit term,600,,Bennington,ST,East Boston,MA,2128,1,246 andover st,,PEABODY,MA,01960,14817,42.38320947,-71.0174103,"(42.383209466575, -71.01741029940591)"
V146594,2/14/2013 10:33,Closed,116.2,,Unsafe and Dangerous,265,267,Sumner,ST,East Boston,MA,2128,1,2220 santa ynez dr,,las vegas,na,89104,132342,42.367931493177664,-71.03788738,"(42.367931493177664, -71.0378873797711)"
V294553,4/11/2016 9:26,Closed,105.1,,Failure to Obtain Permit,56,,Sudan,ST,Dorchester,MA,2125,13,546 East Broadway,,South Boston,MA,02127,131758,42.316589517678366,-71.05390053,"(42.316589517678366, -71.0539005300591)"
V209170,9/10/2014 11:28,Open,116.2,,Unsafe and Dangerous,62,,Beacon,ST,Allston,MA,2134,21,62 North Beacon Street,,Allston,MA,02134,12798,42.35394164323738,-71.14110739,"(42.35394164323738, -71.1411073877243)"
V226255,9/24/2015 16:33,Open,116.2,,Unsafe and Dangerous,11,,Virginia,ST,Dorchester,MA,2125,13,48 VIRGINIA ST,,Dorchester,MA,02125,140903,42.317139535009936,-71.06727056,"(42.317139535009936, -71.06727055919765)"
V617191,6/6/2022 14:35,Open,116,,Unsafe Structures,136,,Academy Hill,RD,Brighton,MA,2135,22,136 ACADEMY HILL RD,,BRIGHTON,MA,02135,222,42.34457964880295,-71.1552507,"(42.34457964880295, -71.15525069524541)"
V440480,6/3/2019 9:46,Open,105.1,,Failure to Obtain Permit,37,,Haydn,ST,Roslindale,MA,2131,20,20 Keystone St,,West Roxbury,MA,02132,72106,42.27842964072562,-71.13960081,"(42.27842964072562, -71.13960080830387)"
V293183,4/1/2016 8:55,Closed,R105.1,,Failure to Secure Permit,25,,Moultrie,ST,Dorchester,MA,2124,17,25 MOULTRIE ST,,DORCHESTER,MA,02124-2229,98049,42.291729540800354,-71.06946062,"(42.291729540800354, -71.06946062111913)"
V289543,3/11/2016 10:20,Closed,102.8,,Maintenance,78,,Glenville,AVE,Allston,MA,2134,21,109 OAK ST,SITE 201,NEWTON,MA,02464,64645,42.34922562146518,-71.13499764,"(42.34922562146518, -71.1349976392374)"
V142788,1/2/2013 7:43,Closed,104.6,,Right of Entry,49,,Embassy,RD,Brighton,MA,2135,22,49 EMBASSY RD,,BRIGHTON,MA,02135,53512,42.34237965116144,-71.1565207,"(42.342379651161444, -71.15652070310148)"
V109617,10/12/2011 14:31,Closed,116.2,,Unsafe and Dangerous,13,15,Charles,ST,Boston,MA,2114,5,Joseph M Cunningham & Robert Aiello TRS,106 Prospect Street,Reading,MA,02186,163153,42.35663319388589,-71.06938892,"(42.35663319388589, -71.06938892261212)"
V446271,7/22/2019 9:44,Closed,521 AAB,,Parking Loading Zone,1,3,Center,PZ,Boston,MA,2108,3,"10 Post Office Sq, 14th Floor",David Greaney,Boston,MA,02109,172818,42.35977286243258,-71.06021925,"(42.35977286243258, -71.0602192462717)"
V340324,4/12/2017 10:30,Open,116.2,,Unsafe and Dangerous,6,,Kevin,RD,Dorchester,MA,2125,13,6 KEVIN RD,,DORCHESTER,MA,02125,81503,42.31674952768199,-71.06184055,"(42.316749527681985, -71.0618405475641)"
V233701,4/10/2015 10:09,Closed,105.1,,Failure to Obtain Permit,163,,Calumet,ST,Mission Hill,MA,2120,10,300 TRADE CTR STE 5410,,WOBURN,MA,01801-7435,24947,42.32945958,-71.10220061,"(42.329459581022796, -71.10220060971004)"
V604461,3/24/2022 10:39,Closed,1001.3.2,,Testing & Certification,20,,Beacon,ST,Boston,MA,2108,3,20 BEACON ST,,BOSTON,MA,02108,10053,42.35778952601694,-71.06269246,"(42.35778952601694, -71.06269245759097)"
V484881,12/29/2020 13:25,Open,105.1,,Failure to Obtain Permit,1514R,,Columbia,RD,South Boston,MA,2127,7,"1514 Columbia Road, Unit 1",,South Boston,MA,02127,35081,42.33082949840556,-71.04025047,"(42.33082949840556, -71.04025046786995)"
V60202,3/22/2010 12:25,Closed,115.6,,Right of Entry,161,,Leyden,ST,East Boston,MA,2128,1,27-29 Lincoln St,,Winthrop,Ma,02152,85759,42.38869647172888,-71.00556044,"(42.38869647172888, -71.00556044286422)"
V349812,6/19/2017 8:12,Closed,105.1,,Failure to Obtain Permit,208,,Norwell,ST,Dorchester,MA,2124,17,208 NORWELL ST,Unit 2,DORCHESTER,MA,02124,104079,42.29537955237632,-71.07804063,"(42.29537955237632, -71.07804063205968)"
V142645,12/24/2012 7:44,Closed,111.1,,Certificate of Occupancy,2566,,Washington,ST,Roxbury,MA,2119,12,Ethiopian Evr .Church inBost,2566    Washington St,Boston,MA,02119,171108,42.32632902,-71.08738449,"(42.3263290179768, -71.08738448581069)"
V163023,8/20/2013 9:49,Closed,116.2,,Unsafe and Dangerous,370,372,Blue Hill,Av,Dorchester,MA,2121,14,660 centre st,,jamica plain,ma,02130,16433,42.31193021707576,-71.08051675,"(42.311930217075755, -71.08051674905177)"
V644470,11/16/2022 11:05,Open,102.8,,Maintenance,14,,Oakhurst,ST,Dorchester,MA,2124,14,40 EAST SYDNEY AVE #41,,MOUNT VERNON,NY,10462,104724,42.28783955936434,-71.08276066,"(42.28783955936434, -71.08276065954128)"
V155445,5/22/2013 11:00,Closed,1001.3.2,,Testing & Certification,97,99,Elm Hill,AVE,Dorchester,MA,2121,12,2985 WASHINGTON ST,,ROXBURY,MA,02119,53244,42.309539564038765,-71.08776062,"(42.309539564038765, -71.08776062251906)"
V88719,12/22/2010 14:36,Closed,110.1,,Inspections,18,,Rugdale,RD,Dorchester,MA,2124,17,18 Rugdale Rd,,Dorchester,MA,02124,119433,42.27646954059375,-71.06841065,"(42.27646954059375, -71.06841065211749)"
V592417,12/22/2021 11:02,Closed,Ch.143-3L,,Elec work w/o per,8,10,Park,PZ,Boston,MA,2116,5,136 Blackstone Street,,BOSTON,MA,02109,158173,42.35188328312263,-71.06699819,"(42.351883283122625, -71.06699818842168)"
V257186,9/8/2015 9:57,Open,104.6,,Right of Entry,16,,Mount Vernon,ST,Dorchester,MA,2125,7,16 MT VERNON ST,,DORCHESTER,MA,02114-1605,98909,42.32255752377667,-71.05877153,"(42.32255752377667, -71.0587715274484)"
V552890,4/22/2021 9:36,Closed,105.1,,Failure to Obtain Permit,24,,Hazleton,ST,Mattapan,MA,2126,14,1753 DANA STREET,,CROFTON,MD,21114,72256,42.27899957681825,-71.09464071,"(42.27899957681825, -71.09464070606293)"
V224844,2/18/2015 12:00,Closed,1001.3.3,,,7,,Delle,AVE,Mission Hill,MA,2120,10,1620 Tremont Street,,Boston,MA,02120,47227,42.33093957501917,-71.0979306,"(42.33093957501917, -71.09793059693936)"
V196386,10/27/2014 10:54,Closed,116.2,,Unsafe and Dangerous,571,,Cummins,HWY,Mattapan,MA,2126,18,571 Cummins Hwy.,Unit. 1,Hyde Park,MA,02136,44898,42.27317959765955,-71.10844075,"(42.27317959765955, -71.10844075048787)"
V228161,6/23/2015 9:55,Closed,1001.3.2,,Testing & Certification,105,,Beacon,ST,Boston,MA,2116,5,9 Kenmore Road,,MELROSE,MA,02176,9488,42.35503953965277,-71.07295049,"(42.35503953965277, -71.07295048749096)"
V151378,4/5/2013 9:07,Open,105.1,,Failure to Obtain Permit,5,,Bradlee,ST,Hyde Park,MA,2136,18,5 BRADLEE ST,,HYDE PARK,MA,02136,19058,42.26658960772046,-71.11534078,"(42.26658960772046, -71.11534078054783)"
V579280,9/13/2021 15:09,Open,102.8,,Maintenance,30, ,Gloucester,ST,Boston,MA,2115,5,30 GLOUCESTER,,BOSTON,MA,02115,64941,42.349443555418574,-71.08449853,"(42.349443555418574, -71.08449852581128)"
V237410,5/6/2015 15:44,Closed,Ch.16-26.4,,Reg. of Construction Hour,15,,Hancock,ST,Boston,MA,2114,3,555 Columbus Ave,Unit A,Boston,MA,02110,68650,42.36065952841358,-71.06466946,"(42.36065952841358, -71.06466945591352)"
V385577,2/26/2018 15:36,Open,105.1,,Failure to Obtain Permit,5, ,Sutton,ST,Mattapan,MA,2126,14,5 SUTTON ST #1-B,,MATTAPAN,MA,02126,133082,42.28222957,-71.08914069,"(42.282229569236804, -71.08914068649435)"
V405112,6/29/2018 12:57,Closed,116.2,,Unsafe and Dangerous,415,425A,Lagrange,ST,West Roxbury,MA,2132,20,18 Alder Road,,Westwood,MA,02090,82771,42.281209666718944,-71.15882085,"(42.281209666718944, -71.15882084563196)"
V183947,10/27/2014 10:56,Closed,105.1,,Failure to Obtain Permit,313,,Meridian,ST,East Boston,MA,2128,1,4 Drake Place.,,Boston,MA,02128,167627,42.37749701888721,-71.03894804,"(42.37749701888721, -71.03894803950737)"
V598554,2/7/2022 9:35,Closed,116,,Unsafe Structures,16,,National,ST,South Boston,MA,2127,7,517 KING STREET,,HANOVER,MA,02339,100380,42.33389950608819,-71.04657048,"(42.33389950608819, -71.04657047517709)"
V104643,8/10/2011 11:49,Closed,116.2,,Unsafe and Dangerous,689,,Seventh,ST,South Boston,MA,2127,7,689 EAST SEVENTH ST,,SOUTH BOSTON,MA,02127,125511,42.33221948748093,-71.03265045,"(42.33221948748093, -71.03265044719842)"
V672066,4/21/2023 8:11,Open,116,,Unsafe Structures,80,100,Smith,ST,Mission Hill,MA,2120,10,170 NEWBURY STREEY,C/O WESTON ASSOCIATES INC,BOSTON,MA,02116,128192,42.33385957778441,-71.1004806,"(42.33385957778441, -71.10048059674006)"
V112411,11/21/2011 9:06,Closed,5110.1,,Failure to secure permit,190,,Bowdoin,ST,Dorchester,MA,2121,15,190 BOWDOIN ST,,DORCHESTER,MA,02122,17670,42.30489953929459,-71.06921059,"(42.30489953929459, -71.0692105903682)"
V682201,11/17/2023 11:45,Open,105.1,,Failure to Obtain Permit,194,,London,ST,East Boston,MA,2128,1,129 INDIAN LANE,,CANTON,MA,02021,87031,42.375253491893766,-71.03697336,"(42.375253491893766, -71.03697336162847)"
V109764,2/3/2012 10:15,Closed,116.2,,Unsafe and Dangerous,387,,Meridian,ST,East Boston,MA,2128,1,& Deane Ciano,80 Stonegate Rd,Indiana,PA,15701,94548,42.37980949390492,-71.03904136,"(42.37980949390492, -71.03904135607418)"
V434058,1/28/2019 8:46,Closed,116.1,,Unsafe and Dangerous,10,,Rockland,ST,Roxbury,MA,2119,12,10 ROCKLAND ST,,ROXBURY,MA,02119,117676,42.32171341234607,-71.0829802,"(42.32171341234607, -71.0829801984868)"
V59733,3/11/2010 10:04,Closed,110.1,,Inspections,47,,Gardner,ST,Allston,MA,2134,21,Millennium Re LLC,23 Central Ave Suite 605,Lynn,Ma,01901,62614,42.353489612349385,-71.12885062,"(42.353489612349385, -71.12885061577465)"
V490035,3/10/2020 10:11,Closed,105.1,,Failure to Obtain Permit,191,,Geneva,AV,Dorchester,MA,2121,14,45 NEPONSET AVE,,DORCHESTER,MA,02124,63272,42.304907304583374,-71.07584639,"(42.304907304583374, -71.07584639324224)"
V472331,6/24/2020 10:20,Open,116.1,,Unsafe and Dangerous,11,15,Warner,ST,Dorchester,MA,2124,14,3217 S. Decker Lake Drive,,Salt Lake City,UT,84119,142788,42.29566955562442,-71.08046064,"(42.29566955562442, -71.08046063693875)"
V70877,6/23/2010 12:53,Closed,110.1,,Inspections,336,,Talbot,AVE,Dorchester,MA,2124,17,336 TALBOT AV,,DORCHESTER ,MA,02124,133705,42.29047954490318,-71.07235063,"(42.29047954490318, -71.07235062967283)"
V253604,10/19/2015 13:23,Closed,1025.1,,Emergency Escape,72,,Copeland,ST,Roxbury,MA,2119,12,72 COPELAND ST,,ROXBURY,MA,02119,42478,42.32337955159959,-71.07944057,"(42.32337955159959, -71.07944057246334)"
V76048,8/6/2010 12:21,Closed,5110.1,,Failure to secure permit,18,,Rugby,RD,Mattapan,MA,2126,18,18 RUGBY RD,,MATTAPAN,MA,02126,119412,42.27035959061331,-71.10351075,"(42.27035959061331, -71.10351074503002)"
V192210,6/6/2014 9:23,Closed,Art. 17 Section 2.04 (3) ,,Permits,3,,Melville,AVE,Dorchester,MA,2124,17,72 Highland Dr,,Pembroke,MA,02859,94063,42.29333954164437,-71.07048062,"(42.29333954164437, -71.07048061916842)"
V114288,12/30/2011 12:31,Closed,Art. 17 Section 2.04 (3) ,,Permits,239,241,Dorchester,ST,South Boston,MA,2127,7,239 Dorchester Street,,South Boston,MA,02127,48956,42.33299951301887,-71.05117049,"(42.33299951301887, -71.05117048737384)"
V204646,2/5/2015 9:48,Closed,111.1,,Certificate of Occupancy,370,,First,ST,South Boston,MA,2127,6,51 Wendell Street,Unit. 2,CAMBRIDGE,MA,02138,171572,42.33831450367183,-71.04458546,"(42.33831450367183, -71.04458546068709)"
V639288,10/19/2022 8:54,Open,116,,Unsafe Structures,13,,Mountfair,TER,Hyde Park,MA,2136,18,2729 TRINIDAD ST,,SARASOTA,FL,34231,99123,42.25039961720413,-71.12011083,"(42.25039961720413, -71.12011082716636)"
V94317,3/24/2011 12:14,Closed,121.1,,Unsafe and Dangerous,43,45,Greenwood,AVE,Hyde Park,MA,2136,18,43 GREENWOOD AVE,,HYDE PARK,MA,02114,66928,42.26539961,-71.11975079,"(42.2653996141316, -71.11975079318297)"
V232138,3/30/2015 8:34,Open,105.1,,Failure to Obtain Permit,87,,Cedar,ST,Boston,MA,2114,5,50 HATHERLY RD,,QUINCY,MA,02170,27053,42.36046953,-71.06990047,"(42.3604695345318, -71.069900468153)"
V241634,6/1/2015 10:30,Open,105.1,,Failure to Obtain Permit,30,,Readville,ST,Hyde Park,MA,2136,18,30 READVILLE STREET,,HYDE PARK,MA,02136-2032,114906,42.24545966,-71.13408086,"(42.2454596606881, -71.13408086356955)"
V222274,6/23/2015 10:00,Closed,107.1,,Required Inspections,55,,Chestnut,ST,Boston,MA,2108,5,55 Chestnut Street,,Boston,MA,02108,31438,42.35732953368845,-71.06899047,"(42.35732953368845, -71.0689904735223)"
V583808,2/28/2022 11:51,Closed,116,,Unsafe Structures,37,,Wales,ST,Dorchester,MA,2124,14,529 MAIN ST STE 100,,CHARLESTOWN,MA,02129,141575,42.29639556701808,-71.08469439,"(42.29639556701808, -71.08469438904933)"
V327320,12/19/2016 11:20,Closed,116.2,,Unsafe and Dangerous,45,,Hancock,ST,Boston,MA,2114,3,35 GRANDVIEW ROAD,,CHELMSFORD,MA,01824,68776,42.35990952799737,-71.06459046,"(42.35990952799737, -71.06459045730821)"
V493148,11/25/2020 12:46,Open,105.1,,Failure to Obtain Permit,394,,Meridian,ST,East Boston,MA,2128,1,40 EVERETT ST,,EAST BOSTON,MA,02128,94554,42.37973149443026,-71.03948736,"(42.37973149443026, -71.03948735714675)"
V172461,11/20/2013 12:46,Closed,116.2,,Unsafe and Dangerous,100,102,Seaver,ST,Dorchester,MA,2121,12,73 dean road,,brookline,ma,02445,124139,42.310539570466965,-71.09241063,"(42.310539570466965, -71.09241063017684)"
V255165,8/31/2015 10:20,Open,116.2,,Unsafe and Dangerous,74,,Chester,ST,Allston,MA,2134,21,58 GAINSBOROUGH STREET,,BOSTON,MA,02115,30891,42.35325561179479,-71.12839662,"(42.35325561179479, -71.12839661595065)"
V241296,5/29/2015 10:06,Closed,R105.1,,Failure to Secure Permit,35,,Chestnut,ST,Boston,MA,2108,5,153 Saconesset Rd,,FALMOUTH,MA,02540,31404,42.35755153290587,-71.06814847,"(42.35755153290587, -71.068148470923)"
V179784,3/18/2014 10:29,Closed,116.2,,Unsafe and Dangerous,78,,Willow,CT,Dorchester,MA,2125,7,C/O STEPHEN DIMARCO,76 FULLER WAY,BERLIN,CT,06037-1540,150196,42.32443873,-71.06392971,"(42.3244387316451, -71.0639297126172)"
V69891,6/14/2010 15:35,Closed,3307,,Protection of Adj. Property,610,,Columbus,AVE,Roxbury,MA,2118,9,"Paul G Roiff, 74 Clarendon St, Suite A",,Boston,MA,02116,36030,42.33968955391787,-71.08251054,"(42.33968955391787, -71.08251054328429)"
V481527,1/15/2020 10:29,Closed,116.1,,Unsafe and Dangerous,9,,Adams,ST,Charlestown,MA,2129,2,9 ADAMS ST,,CHARLESTOWN,MA,02129,330,42.37455651992392,-71.05942741,"(42.374556519923914, -71.05942741345869)"
V274218,12/21/2015 15:55,Open,116.2,,Unsafe and Dangerous,23,25,Robey,ST,Roxbury,MA,2119,8,15 Woodbriar Road,,Quincy,MA,02171,419580,42.322432665577935,-71.0685268,"(42.322432665577935, -71.06852680447066)"
V613392,5/6/2022 10:43,Closed,1001.3.2,,Testing & Certification,56,,Queensberry,ST,Boston,MA,2215,5,1283 COMMONWEALTH AVE UNIT 1,,ALLSTON,MA,02134,113795,42.34253957344146,-71.09749057,"(42.34253957344146, -71.09749057037817)"
V513724,9/9/2020 9:39,Open,3-Apr,,Building or Use of Premise req,967R,975R,Massachusetts,AV,Roxbury,MA,2119,8,2721 N CENTRAL AVENUE,,PHONIX,AZ,85004,348859,42.328316241788805,-71.06953576,"(42.328316241788805, -71.06953575975795)"
V689572,7/26/2023 11:27,Open,116,,Unsafe Structures,50,60,Freeport,ST,Dorchester,MA,2125,15,193 Dutton Road,,Sudbury,MA,01776,60888,42.306509522555054,-71.05734056,"(42.306509522555054, -71.0573405606089)"
V99991,6/24/2011 8:47,Closed,105.1,,Failure to Obtain Permit,19,,Carol,CIR,West Roxbury,MA,2132,20,275 Cross St,,Winchester,MA,01890,25976,42.26902965800829,-71.15107086,"(42.26902965800829, -71.15107085521102)"
V117457,2/17/2012 14:04,Closed,5110.1,,Failure to secure permit,10,,Salcombe,ST,Dorchester,MA,2125,13,32 Mayhew St,,Dorchester,MA,02125,121672,42.314709527063954,-71.06091755,"(42.314709527063954, -71.06091754979589)"
V492130,3/20/2020 14:14,Closed,102.2.2,,Municipal Bylaws or Ordinances,26,32,Chandler,ST,Boston,MA,2116,5,"155 108th Avenue NE, Suite 500",,Bellevue,WA,98004,163125,42.34695475648693,-71.07057484,"(42.34695475648693, -71.07057484252488)"
V597253,2/28/2022 15:44,Open,102.8,,Maintenance,1,,Rosa,ST,Hyde Park,MA,2136,18,1226 HYDE PARK AVE,,HYDE PARK,MA,02136,118221,42.26161960389487,-71.11198078,"(42.26161960389487, -71.11198078388469)"
V681840,6/23/2023 15:40,Closed,102.8,,Maintenance,10,14,Park Vale,AVE,Allston,MA,2134,21,10 PARK VALE #5,,ALLSTON,MA,02134,107588,42.35096962,-71.13300063,"(42.350969618001, -71.13300063135495)"
V387428,3/8/2018 13:44,Closed,116.2,,Unsafe and Dangerous,58,,Lubec,ST,East Boston,MA,2128,1,30A WINDING OAKS WAY,,BOXFORD,MA,01921,87710,42.37026948778949,-71.03394037,"(42.37026948778949, -71.03394036551798)"
V114066,12/20/2011 15:13,Closed,116.2,,Unsafe and Dangerous,160,170,Washington,ST,Boston,MA,2114,3,Robert Easton,21 Wortner Road - #102,Lexington,MA,02421,146266,42.36728278170785,-71.05931922,"(42.36728278170785, -71.05931921824359)"
V185023,5/2/2014 10:39,Closed,111.1,,Certificate of Occupancy,88,,P,ST,South Boston,MA,2127,6,88 P ST,,BOSTON,MA,02127,106287,42.33527948058232,-71.02693043,"(42.33527948058232, -71.02693042742513)"
V91482,2/11/2011 9:31,Closed,121,,Unsafe Structure,399, ,Chestnut Hill,AVE,Boston,MA,2135,21,840 University Ave,,Norwood,MA,02662,341073,42.33467673211927,-71.15061487,"(42.33467673211927, -71.15061487214173)"
V85152,10/27/2010 14:21,Closed,121.2,,Unsafe and Dangerous,31,,Edson,ST,Dorchester,MA,2124,17,"41 Greenwood Ave, Unit #2",,Hyde Park,MA,02136,51339,42.28640955336668,-71.07793065,"(42.28640955336668, -71.0779306512974)"
V217860,5/18/2015 10:27,Open,101.4.4,,Maintenance,55,,Oldfields,RD,Dorchester,MA,2121,14,55 Oldfields Road,,Dorchester,MA,02121,343979,42.30830416567628,-71.07982777,"(42.308304165676276, -71.07982777417278)"
V462407,9/4/2019 15:35,Closed,105.1,,Failure to Obtain Permit,15,,Freeland,ST,Mattapan,MA,2126,17,15 FREELAND,,MATTAPAN,MA,02126,60783,42.27415955484136,-71.07866068,"(42.274159554841354, -71.07866068066595)"
V98337,5/13/2011 9:43,Closed,5110.1,,Failure to secure permit,63,,Howard,AVE,Dorchester,MA,2125,13,63 Howard Ave,,Dorchester,MA,02128,75549,42.31869954373336,-71.07387057,"(42.31869954373336, -71.07387056996717)"
V120051,3/23/2012 13:13,Closed,105.1,,Failure to Obtain Permit,345,,Washington,ST,Dorchester,MA,2121,14,39 BRADLEE STREET,,HYDE PARK,MA,02136,146040,42.29941955,-71.07399061,"(42.299419546534395, -71.07399061341425)"
V496433,6/23/2020 10:05,Closed,116.2,,Unsafe and Dangerous,430,454,Blue Hill,AV,Dorchester,MA,2121,14,1434 BLUE HILL AVE,,MATTAPAN,MA,02126,352313,42.30967057388206,-71.08220048,"(42.30967057388206, -71.0822004786592)"
V112865,11/23/2011 12:40,Closed,116.2,,Unsafe and Dangerous,413,,Saratoga,ST,East Boston,MA,2128,1,413 Saratoga St.,,East Boston,MA,02128,122644,42.37912448130291,-71.02918634,"(42.37912448130291, -71.0291863353329)"
V509284,8/24/2020 9:43,Closed,105.1,,Failure to Obtain Permit,8,,Mitchell,ST,South Boston,MA,2127,7,8 MITCHELL ST,,SOUTH BOSTON,MA,02127,96248,42.332609514390256,-71.05220049,"(42.332609514390256, -71.05220049033024)"
V129428,7/20/2012 9:36,Closed,1014.2,,Egress thru Intervening Spaces,2,,New Whitney,ST,Boston,MA,2115,10,MISSION PARK LLC,11 NEW WHITNEY STREET,BOSTON,MA,02115,342846,42.33423750606553,-71.10911763,"(42.33423750606553, -71.10911763401683)"
V196377,6/26/2014 15:51,Closed,116.2,,Unsafe and Dangerous,139,,Stoughton,ST,Dorchester,MA,2125,13,139 Stoughton St.,,Dorchester,MA,02125,131109,42.31482952687024,-71.06072055,"(42.314829526870234, -71.06072054986724)"
V474948,12/3/2019 9:40,Closed,105.1,,Failure to Obtain Permit,464,,Metropolitan,AVE,Hyde Park,MA,2136,18,464 METROPOLITAN AV,,HYDE PARK,MA,02136,94909,42.27025961421837,-71.12026078,"(42.27025961421837, -71.12026078362803)"
V249583,7/29/2015 10:20,Open,107.4,,Failed to comply w permit term,8,10,Harvard,TE,Allston,MA,2134,21,93 FISHER AVE,,BROOKLINE,MA,02445,355205,42.35385507716174,-71.13289235,"(42.35385507716174, -71.13289234874753)"
V420513,2/20/2019 10:52,Open,105.1,,Failure to Obtain Permit,1127,1131,Harrison,AV,Roxbury,MA,2119,8,"15 Cottage Avenue, 4th Floor",,Quincy,MA,02169,166058,42.33052947363565,-71.08222611,"(42.33052947363565, -71.08222610872978)"
V257479,9/9/2015 8:31,Open,102.8,,Maintenance,159,,Seventh,ST,South Boston,MA,2127,6,159 W SEVENTH ST,,SOUTH BOSTON,MA,02127,125675,42.334979513684246,-71.05214048,"(42.334979513684246, -71.0521404848678)"
V337284,7/21/2017 9:36,Open,105.1,,Failure to Obtain Permit,164,,Park,ST,West Roxbury,MA,2132,20,164 PARK,,WEST ROXBURY,MA,02132,107455,42.28385965835425,-71.15334083,"(42.28385965835425, -71.15334082743203)"
V174578,12/30/2013 10:40,Closed,906,,Portable Fire Extinguishers,200,,Lincoln,ST,Boston,MA,2111,3,105 North Washington Street,,Boston,MA,02114,86080,42.35025952131279,-71.05858047,"(42.350259521312786, -71.05858046530828)"
V484244,1/31/2020 11:31,Closed,1001.3.2,,Testing & Certification,171,,Beacon,ST,Boston,MA,2116,5,171 BEACON ST,,BOSTON,MA,02116,161890,42.35432717732131,-71.07558906,"(42.35432717732131, -71.07558905686847)"
V179001,3/6/2014 14:13,Closed,105.1,,Failure to Obtain Permit,489,,Columbia,RD,Dorchester,MA,2125,15,489 COLUMBIA RD,,DORCHESTER,MA,02125,35276,42.31420954,-71.06717057,"(42.3142095359038, -71.06717056537698)"
V66342,5/13/2010 11:39,Closed,121.1,,Unsafe and Dangerous,1489,,Centre,ST,Roslindale,MA,2131,20,1487 CENTRE ST,,West Roxbury,MA,02132,27611,42.29170863787512,-71.13953278,"(42.29170863787512, -71.13953277889564)"
V185890,5/5/2014 9:18,Closed,111.1,,Certificate of Occupancy,80,,Concord,ST,Roxbury,MA,2118,8,80 EAST CONCORD,,BOSTON,MA,02114,41853,42.33597314693984,-71.07225351,"(42.335973146939835, -71.07225350706477)"
V159916,7/15/2013 10:25,Closed,111.1,,Certificate of Occupancy,315,,Shawmut,AV,Roxbury,MA,2118,3,48 blodgett ave,,swampscott,ma,02154,157079,42.34234024317182,-71.07053033,"(42.34234024317182, -71.07053032676487)"
V98794,6/17/2011 9:13,Closed,5103.1,,Maintenance,408,,Poplar,ST,Roslindale,MA,2131,18,408 POPLAR ST,,ROSLINDALE,MA,02131,111873,42.27633962035535,-71.12489078,"(42.27633962035535, -71.12489077977288)"
V549272,3/19/2021 11:21,Closed,116.1,,Unsafe and Dangerous,14,,Harvard,ST,Dorchester,MA,2124,17,368 ADAMS STREET,,QUINCY,MA,02169,70784,42.29900555,-71.07428562,"(42.299005546707996, -71.07428561512206)"
V287617,6/17/2016 8:45,Open,111.1,,Certificate of Occupancy,233, ,Hancock,ST,Dorchester,MA,2125,15,751 SAW MILL BROOK PARKWAY,,Newton,MA,02459,68907,42.30945952651553,-71.06027056,"(42.30945952651553, -71.0602705607025)"
V435261,2/8/2019 15:55,Closed,2-Mar,,Street Numbers,2,,Warren,ST,Roxbury,MA,2119,8,1500 Blue Hill Avenue,,Mattapan,MA,02126,143220,42.33045355508429,-71.08288856,"(42.33045355508429, -71.08288856419574)"
V179000,3/6/2014 10:54,Closed,116.2,,Unsafe and Dangerous,75,,Bickford,ST,Jamaica Plain,MA,2130,10,martha eliot health centre,75 bickford st,JAMAICA PLAIN,MA,02130,15294,42.324479581241725,-71.10200062,"(42.324479581241725, -71.10200062111929)"
V228166,2/24/2015 14:51,Closed,116.1,,Unsafe and Dangerous,2997,,Washington,ST,Roxbury,MA,2119,11,6 Liberty Square #2116,,Boston,MA,02109,144602,42.31761957538773,-71.09676062,"(42.31761957538773, -71.09676062406379)"
V123278,5/2/2012 14:04,Closed,111.1,,Certificate of Occupancy,12,,Hiawatha,RD,Mattapan,MA,2126,18,12 HIAWATHA RD,,MATTAPAN,MA,02126,73216,42.27624957694737,-71.09440071,"(42.27624957694737, -71.09440071132026)"
V246491,12/3/2015 11:14,Closed,1001.3.3,,,48,,Chelsea,ST,East Boston,MA,2128,1,C/O GENEROSO CIRUOLO,65 CHELSEA ST,BOSTON,MA,02128-1971,30576,42.37119649,-71.03755137,"(42.3711964928651, -71.03755137161598)"
V418082,9/18/2018 13:08,Open,105.1,,Failure to Obtain Permit,12,,Arcadia,PARK,Dorchester,MA,2122,15,C/O PD LAND TRUST LLC,100 HALLET ST SUIT,BOSTON,MA,02124,4506,42.30096953055132,-71.06284059,"(42.30096953055132, -71.0628405852502)"
V167273,10/24/2013 9:54,Open,116.2,,Unsafe and Dangerous,870,,Huntington,AVE,Mission Hill,MA,2115,10,33774 heartland ct,,union city,CA,94587,76458,42.33246959234284,-71.11081062,"(42.33246959234284, -71.1108106226135)"
V157815,7/9/2013 10:17,Closed,116.2,,Unsafe and Dangerous,58,,Eutaw,ST,East Boston,MA,2128,1,224 east eagle st,,east boston,ma,02128,54719,42.37944949228863,-71.03739035,"(42.37944949228863, -71.03739035259636)"
V64416,4/28/2010 11:08,Closed,Chapter 103.1,,Unsafe Maintenance,59,,Webster,ST,East Boston,MA,2128,1,59 WEBSTER ST,,EAST BOSTON,MA,02128,146905,42.36718249345564,-71.03839438,"(42.36718249345564, -71.03839438259045)"
V156558,6/6/2013 13:17,Open,107.4,,Failed to comply w permit term,493,,Dudley,ST,Roxbury,MA,2119,8,493 dudley st  llc,103 clayton st,dorchester,ma,02122,164570,42.32278551519709,-71.07331249,"(42.32278551519709, -71.07331248674939)"
V87784,2/11/2011 15:22,Closed,121.1,,Unsafe and Dangerous,7,,Crowell,ST,Dorchester,MA,2124,17,12 Marvin Lane,,Newton,MA,02459,44616,42.28336955915895,-71.08236067,"(42.28336955915895, -71.08236066817821)"
V214230,10/28/2014 8:44,Open,116.2,,Unsafe and Dangerous,102,110,Savin Hill,AV,Dorchester,MA,2125,13,36 Acton Street,,Quincy,MA,02170,123159,42.31181383472542,-71.05381559,"(42.31181383472542, -71.05381559188623)"
V305526,7/6/2016 15:43,Closed,116.2,,Unsafe and Dangerous,3,,McCormick,SQ,East Boston,MA,2128,1,40 Everett Street,,East Boston,MA,02128,154967,42.36483548467104,-71.03096937,"(42.36483548467104, -71.03096937064176)"
V134829,9/21/2012 9:34,Closed,107.4,,Failed to comply w permit term,32,,Chestnut,ST,Charlestown,MA,2129,2,2 Carisbrooke RD,,MILTON,MA,02186,31574,42.374776519876384,-71.05920441,"(42.374776519876384, -71.05920441205275)"
V210274,9/18/2014 9:00,Open,1003.6,,Means of Egress,8,,Harvest,ST,Dorchester,MA,2125,7,1405 b beacon st,,brookline,MA,02446,71041,42.32243952153652,-71.05717052,"(42.322439521536516, -71.05717052395704)"
V484811,2/5/2020 11:45,Closed,107.4,,Failed to comply w permit term,7,,Iowa,ST,Dorchester,MA,2124,15,7 IOWA STREET,,DORCHESTER,MA,02124,78829,42.30038953778361,-71.0679006,"(42.30038953778361, -71.06790059736905)"
V242684,6/8/2015 11:34,Closed,116.2,,Unsafe and Dangerous,28,,Granville,ST,Dorchester,MA,2124,16,28 GRANVILLE ST,,DORCHESTER,MA,02128,65992,42.28120952348868,-71.05654062,"(42.28120952348868, -71.05654061516101)"
V59740,3/11/2010 11:47,Closed,110.1,,Inspections,28, ,Park View,ST,Dorchester,MA,2121,12,94 SEAVER ST,C/O DAVID CARUCCI,DORCHESTER,MA,02121,107730,42.31063957084599,-71.09260063,"(42.310639570845986, -71.09260063017628)"
V286445,2/26/2016 8:52,Open,105.1,,Failure to Obtain Permit,600,618,Columbia,RD,Dorchester,MA,2125,7,C/O HEATH MANAGEMENT CO,74 CLARENDON ST SUITE A,Boston,MA,02116,340679,42.317476588588505,-71.06488744,"(42.317476588588505, -71.06488743930791)"
V163176,8/21/2013 11:04,Closed,116.2,,Unsafe and Dangerous,46,47,Beacon,ST,Boston,MA,2108,5,holy sprit assoc,46 beacon st,boston,ma,02108,11517,42.35684953192021,-71.06727047,"(42.35684953192021, -71.06727047051805)"
V123671,5/7/2012 14:48,Closed,R105.1,,Failure to Secure Permit,174,,M,ST,South Boston,MA,2127,7,800 Nicollet Mall,US Bancorp Center,Minneapolis,Minnesota,55402,267022,42.33188948848703,-71.03304045,"(42.33188948848703, -71.03304044907233)"
V192976,10/27/2014 10:29,Closed,101.4.4,,Maintenance,5,5A,Creston,PARK,Dorchester,MA,2121,14,333 Ricciuti Drive,Unit. 1918,Quincy,MA,02169,44353,42.31265955214575,-71.0793606,"(42.31265955214575, -71.07936059610645)"
V73824,7/20/2010 14:46,Closed,110.1,,Inspections,54, ,Everett,ST,East Boston,MA,2128,1,54 Everett St,,East Boston,MA,02128,55162,42.36809949009176,-71.03576037,"(42.36809949009176, -71.03576037462491)"
V613398,5/6/2022 11:11,Closed,1001.3.2,,Testing & Certification,131,,Putnam,ST,East Boston,MA,2128,1,131 PUTNAM STREET,,EAST BOSTON,MA,02128,113622,42.378349485434136,-71.03221034,"(42.378349485434136, -71.03221034394147)"
V285180,6/17/2016 9:07,Closed,105.1,,Failure to Obtain Permit,61,,Crescent,AVE,Dorchester,MA,2125,13,97 PRATT RD,,SCITUATE,MA,02066-2054,44228,42.31881951629333,-71.05344052,"(42.318819516293324, -71.05344052440493)"
V169659,10/21/2013 9:07,Closed,116.2,,Unsafe and Dangerous,81,83,Orient,AVE,East Boston,MA,2128,1,83 orient ave,,east boston,ma,02128,105640,42.39031844851646,-71.00287925,"(42.39031844851646, -71.0028792511363)"
V124281,5/14/2012 12:02,Closed,107.4,,Failed to comply w permit term,53,,Forest,ST,Roxbury,MA,2119,8,BERNARD FEENEY AGENT,103 CLAYTON STREET,DORCHESTER,MA,02122,59306,42.32602954795173,-71.07706056,"(42.326029547951734, -71.07706056118666)"
V654622,1/3/2023 9:26,Closed,102.8,,Maintenance,2679,,Washington,ST,Roxbury,MA,2119,9,2679 WASHINGTON STREET,,ROXBURY,MA,02119,144522,42.32389956460345,-71.08937059,"(42.32389956460345, -71.08937059366777)"
V189392,10/27/2014 10:47,Closed,116.2,,Unsafe and Dangerous,148,,Stanwood,ST,Dorchester,MA,2121,14,103 Bigelow St.,,Brighton,MA,02135,130271,42.30770955020271,-71.0773306,"(42.30770955020271, -71.0773306026099)"
